%time,field.header.seq,field.header.stamp,field.header.frame_id,field.sentence,UTC,longitude,latitude,altitude,,,,,,,,,,,,,,,,,
1684378341287103480,82,1684378341286787986,gps,$KSXT,20230518033229.90,114.20877497,22.69096604,57.3389,271.04,-3.31,36.96,0.103,,1,3,12,12,,,,0.062,0.082,-0.043,,*2E
1684378341338045368,83,1684378341337561845,gps,$KSXT,20230518033229.95,114.20877497,22.69096604,57.3389,269.63,-2.18,36.96,0.103,,1,3,12,12,,,,0.062,0.082,-0.043,,*29
1684378341404067096,84,1684378341403782367,gps,$KSXT,20230518033230.00,114.20877527,22.69096683,57.2444,270.64,-4.42,340.03,0.078,,1,3,12,12,,,,-0.027,0.074,-0.026,,*3C
1684378341439231736,85,1684378341438856124,gps,$KSXT,20230518033230.05,114.20877527,22.69096683,57.2444,270.24,-1.76,340.03,0.078,,1,3,12,12,,,,-0.027,0.074,-0.026,,*3F
1684378341486253816,86,1684378341485974550,gps,$KSXT,20230518033230.10,114.20877527,22.69096683,57.2444,269.19,-1.38,340.03,0.078,,1,3,12,12,,,,-0.027,0.074,-0.026,,*37
1684378341539365880,87,1684378341538945198,gps,$KSXT,20230518033230.15,114.20877527,22.69096683,57.2444,267.55,1.18,340.03,0.078,,1,3,13,12,,,,-0.027,0.074,-0.026,,*1A
1684378341587397112,88,1684378341587100267,gps,$KSXT,20230518033230.20,114.20877527,22.69096683,57.2444,268.52,0.09,340.03,0.078,,1,3,13,12,,,,-0.027,0.074,-0.026,,*15
1684378341637716760,89,1684378341637357234,gps,$KSXT,20230518033230.25,114.20877527,22.69096683,57.2444,269.74,-0.57,340.03,0.078,,1,3,13,12,,,,-0.027,0.074,-0.026,,*33
1684378341685148216,90,1684378341684714794,gps,$KSXT,20230518033230.30,114.20877527,22.69096683,57.2444,270.09,-1.51,340.03,0.078,,1,3,13,12,,,,-0.027,0.074,-0.026,,*32
1684378341738155928,91,1684378341737806797,gps,$KSXT,20230518033230.35,114.20877527,22.69096683,57.2444,269.06,2.23,340.03,0.078,,1,3,13,12,,,,-0.027,0.074,-0.026,,*1B
1684378341784847576,92,1684378341784553050,gps,$KSXT,20230518033230.40,114.20877527,22.69096683,57.2444,268.76,2.26,340.03,0.078,,1,3,13,12,,,,-0.027,0.074,-0.026,,*1A
1684378341837736600,93,1684378341837455272,gps,$KSXT,20230518033230.45,114.20877527,22.69096683,57.2444,268.28,0.27,340.03,0.078,,1,3,13,12,,,,-0.027,0.074,-0.026,,*17
1684378341887761784,94,1684378341887417078,gps,$KSXT,20230518033230.50,114.20877527,22.69096683,57.2444,270.28,-0.61,340.03,0.078,,1,3,13,12,,,,-0.027,0.074,-0.026,,*35
1684378341937887800,95,1684378341937539339,gps,$KSXT,20230518033230.55,114.20877527,22.69096683,57.2444,271.01,-2.58,340.03,0.078,,1,3,13,12,,,,-0.027,0.074,-0.026,,*32
1684378341988077592,96,1684378341987692117,gps,$KSXT,20230518033230.60,114.20877527,22.69096683,57.2444,270.78,-5.24,340.03,0.078,,1,3,12,12,,,,-0.027,0.074,-0.026,,*36
1684378342037844664,97,1684378342037423849,gps,$KSXT,20230518033230.65,114.20877527,22.69096683,57.2444,270.25,-2.11,340.03,0.078,,1,3,13,12,,,,-0.027,0.074,-0.026,,*3B
1684378342087742776,98,1684378342087383508,gps,$KSXT,20230518033230.70,114.20877527,22.69096683,57.2444,269.22,-1.80,340.03,0.078,,1,3,13,12,,,,-0.027,0.074,-0.026,,*3B
1684378342137848152,99,1684378342137494802,gps,$KSXT,20230518033230.75,114.20877527,22.69096683,57.2444,269.10,-0.68,340.03,0.078,,1,3,13,12,,,,-0.027,0.074,-0.026,,*38
1684378342187797560,100,1684378342187440156,gps,$KSXT,20230518033230.80,114.20877527,22.69096683,57.2444,268.00,-0.45,340.03,0.078,,1,3,13,12,,,,-0.027,0.074,-0.026,,*3D
1684378342237837624,101,1684378342237418651,gps,$KSXT,20230518033230.85,114.20877527,22.69096683,57.2444,270.19,-0.23,340.03,0.078,,1,3,13,12,,,,-0.027,0.074,-0.026,,*39
1684378342287910040,102,1684378342287548303,gps,$KSXT,20230518033230.90,114.20877527,22.69096683,57.2444,269.75,-0.89,340.03,0.078,,1,3,13,12,,,,-0.027,0.074,-0.026,,*3F
1684378342338128600,103,1684378342337512493,gps,$KSXT,20230518033230.95,114.20877527,22.69096683,57.2444,269.65,0.61,340.03,0.078,,1,3,13,12,,,,-0.027,0.074,-0.026,,*10
1684378342403812408,104,1684378342403440237,gps,$KSXT,20230518033231.00,114.20877532,22.69096751,57.1584,270.98,-2.01,334.80,0.054,,1,3,12,12,,,,-0.023,0.049,-0.096,,*3C
1684378342439585848,105,1684378342439086198,gps,$KSXT,20230518033231.05,114.20877532,22.69096751,57.1584,270.94,-1.30,334.80,0.054,,1,3,12,12,,,,-0.023,0.049,-0.096,,*34
1684378342489124824,106,1684378342488839387,gps,$KSXT,20230518033231.10,114.20877532,22.69096751,57.1584,271.77,-2.83,334.80,0.054,,1,3,12,12,,,,-0.023,0.049,-0.096,,*37
1684378342536131832,107,1684378342535827159,gps,$KSXT,20230518033231.15,114.20877532,22.69096751,57.1584,271.68,-4.12,334.80,0.054,,1,3,12,12,,,,-0.023,0.049,-0.096,,*32
1684378342588388760,108,1684378342587628841,gps,$KSXT,20230518033231.20,114.20877532,22.69096751,57.1584,270.93,-3.31,334.80,0.054,,1,3,12,12,,,,-0.023,0.049,-0.096,,*37
1684378342634900920,109,1684378342634601354,gps,$KSXT,20230518033231.25,114.20877532,22.69096751,57.1584,269.91,-3.79,334.80,0.054,,1,3,12,12,,,,-0.023,0.049,-0.096,,*34
1684378342687934872,110,1684378342687544345,gps,$KSXT,20230518033231.30,114.20877532,22.69096751,57.1584,270.53,-1.61,334.80,0.054,,1,3,12,12,,,,-0.023,0.049,-0.096,,*3D
1684378342736717304,111,1684378342736201763,gps,$KSXT,20230518033231.35,114.20877532,22.69096751,57.1584,270.31,-1.45,334.80,0.054,,1,3,12,12,,,,-0.023,0.049,-0.096,,*3A
1684378342788008632,112,1684378342787478923,gps,$KSXT,20230518033231.40,114.20877532,22.69096751,57.1584,271.06,-3.33,334.80,0.054,,1,3,12,12,,,,-0.023,0.049,-0.096,,*3E
1684378342837846648,113,1684378342837551593,gps,$KSXT,20230518033231.45,114.20877532,22.69096751,57.1584,269.90,-2.82,334.80,0.054,,1,3,12,12,,,,-0.023,0.049,-0.096,,*36
1684378342887901368,114,1684378342887521982,gps,$KSXT,20230518033231.50,114.20877532,22.69096751,57.1584,270.91,-3.06,334.80,0.054,,1,3,12,12,,,,-0.023,0.049,-0.096,,*36
1684378342935241944,115,1684378342934924840,gps,$KSXT,20230518033231.55,114.20877532,22.69096751,57.1584,269.76,-2.04,334.80,0.054,,1,3,12,12,,,,-0.023,0.049,-0.096,,*31
1684378342987863672,116,1684378342987438678,gps,$KSXT,20230518033231.60,114.20877532,22.69096751,57.1584,270.90,-1.92,334.80,0.054,,1,3,12,12,,,,-0.023,0.049,-0.096,,*3B
1684378343037791384,117,1684378343037516117,gps,$KSXT,20230518033231.65,114.20877532,22.69096751,57.1584,270.90,-2.47,334.80,0.054,,1,3,12,12,,,,-0.023,0.049,-0.096,,*35
1684378343087859448,118,1684378343087486267,gps,$KSXT,20230518033231.70,114.20877532,22.69096751,57.1584,270.84,-1.57,334.80,0.054,,1,3,12,12,,,,-0.023,0.049,-0.096,,*36
1684378343137671864,119,1684378343137398958,gps,$KSXT,20230518033231.75,114.20877532,22.69096751,57.1584,270.66,-1.45,334.80,0.054,,1,3,12,12,,,,-0.023,0.049,-0.096,,*3C
1684378343187772696,120,1684378343187346220,gps,$KSXT,20230518033231.80,114.20877532,22.69096751,57.1584,270.54,-3.25,334.80,0.054,,1,3,12,12,,,,-0.023,0.049,-0.096,,*33
1684378343238084376,121,1684378343237485647,gps,$KSXT,20230518033231.85,114.20877532,22.69096751,57.1584,270.69,-1.64,334.80,0.054,,1,3,12,12,,,,-0.023,0.049,-0.096,,*3F
1684378343288107736,122,1684378343287457704,gps,$KSXT,20230518033231.90,114.20877532,22.69096751,57.1584,270.10,-0.94,334.80,0.054,,1,3,12,12,,,,-0.023,0.049,-0.096,,*3B
1684378343337793848,123,1684378343337493181,gps,$KSXT,20230518033231.95,114.20877532,22.69096751,57.1584,269.64,-1.04,334.80,0.054,,1,3,12,12,,,,-0.023,0.049,-0.096,,*3D
1684378343404911608,124,1684378343404545307,gps,$KSXT,20230518033232.00,114.20877539,22.69096799,57.0386,269.87,-0.93,41.12,0.059,,1,3,12,12,,,,0.039,0.044,-0.063,,*2C
1684378343439455288,125,1684378343438951969,gps,$KSXT,20230518033232.05,114.20877539,22.69096799,57.0386,270.46,-2.97,41.12,0.059,,1,3,12,12,,,,0.039,0.044,-0.063,,*2A
1684378343489184920,126,1684378343488865137,gps,$KSXT,20230518033232.10,114.20877539,22.69096799,57.0386,270.63,0.20,41.12,0.059,,1,3,12,12,,,,0.039,0.044,-0.063,,*0A
1684378343539342904,127,1684378343538977861,gps,$KSXT,20230518033232.15,114.20877539,22.69096799,57.0386,268.37,2.31,41.12,0.059,,1,3,13,12,,,,0.039,0.044,-0.063,,*04
1684378343587539768,128,1684378343587222576,gps,$KSXT,20230518033232.20,114.20877539,22.69096799,57.0386,269.20,3.09,41.12,0.059,,1,3,13,12,,,,0.039,0.044,-0.063,,*0F
1684378343637736568,129,1684378343637350082,gps,$KSXT,20230518033232.25,114.20877539,22.69096799,57.0386,271.75,1.51,41.12,0.059,,1,3,12,12,,,,0.039,0.044,-0.063,,*0D
1684378343684844824,130,1684378343684562444,gps,$KSXT,20230518033232.30,114.20877539,22.69096799,57.0386,271.17,3.13,41.12,0.059,,1,3,13,12,,,,0.039,0.044,-0.063,,*08
1684378343737797624,131,1684378343737424612,gps,$KSXT,20230518033232.35,114.20877539,22.69096799,57.0386,269.60,3.25,41.12,0.059,,1,3,13,12,,,,0.039,0.044,-0.063,,*01
1684378343784968408,132,1684378343784596681,gps,$KSXT,20230518033232.40,114.20877539,22.69096799,57.0386,270.32,3.93,41.12,0.059,,1,3,13,12,,,,0.039,0.044,-0.063,,*01
1684378343837643320,133,1684378343837285041,gps,$KSXT,20230518033232.45,114.20877539,22.69096799,57.0386,269.76,2.08,41.12,0.059,,1,3,13,12,,,,0.039,0.044,-0.063,,*0F
1684378343885139832,134,1684378343884761333,gps,$KSXT,20230518033232.50,114.20877539,22.69096799,57.0386,269.54,1.25,41.12,0.059,,1,3,12,12,,,,0.039,0.044,-0.063,,*06
1684378343935064600,135,1684378343934663057,gps,$KSXT,20230518033232.55,114.20877539,22.69096799,57.0386,269.14,3.30,41.12,0.059,,1,3,13,12,,,,0.039,0.044,-0.063,,*00
1684378343987375704,136,1684378343987084627,gps,$KSXT,20230518033232.60,114.20877539,22.69096799,57.0386,269.55,4.40,41.12,0.059,,1,3,13,12,,,,0.039,0.044,-0.063,,*03
1684378344034613048,137,1684378344034288167,gps,$KSXT,20230518033232.65,114.20877539,22.69096799,57.0386,268.37,3.90,41.12,0.059,,1,3,13,12,,,,0.039,0.044,-0.063,,*09
1684378344088074200,138,1684378344087697267,gps,$KSXT,20230518033232.70,114.20877539,22.69096799,57.0386,268.91,3.26,41.12,0.059,,1,3,13,12,,,,0.039,0.044,-0.063,,*0C
1684378344137830616,139,1684378344137468576,gps,$KSXT,20230518033232.75,114.20877539,22.69096799,57.0386,268.33,3.12,41.12,0.059,,1,3,13,12,,,,0.039,0.044,-0.063,,*06
1684378344187507928,140,1684378344187199831,gps,$KSXT,20230518033232.80,114.20877539,22.69096799,57.0386,271.01,2.51,41.12,0.059,,1,3,13,12,,,,0.039,0.044,-0.063,,*03
1684378344237561016,141,1684378344237160444,gps,$KSXT,20230518033232.85,114.20877539,22.69096799,57.0386,270.18,4.01,41.12,0.059,,1,3,13,12,,,,0.039,0.044,-0.063,,*0C
1684378344287465368,142,1684378344287075519,gps,$KSXT,20230518033232.90,114.20877539,22.69096799,57.0386,269.49,3.29,41.12,0.059,,1,3,13,12,,,,0.039,0.044,-0.063,,*09
1684378344337713304,143,1684378344337356805,gps,$KSXT,20230518033232.95,114.20877539,22.69096799,57.0386,270.43,1.03,41.12,0.059,,1,3,12,12,,,,0.039,0.044,-0.063,,*05
1684378344405153528,144,1684378344404330015,gps,$KSXT,20230518033233.00,114.20877533,22.69096929,57.0033,269.37,3.41,321.96,0.058,,1,3,13,12,,,,-0.036,0.046,-0.111,,*18
1684378344436639352,145,1684378344436224460,gps,$KSXT,20230518033233.05,114.20877533,22.69096929,57.0033,270.46,4.14,321.96,0.058,,1,3,13,12,,,,-0.036,0.046,-0.111,,*14
1684378344489030040,146,1684378344488722324,gps,$KSXT,20230518033233.10,114.20877533,22.69096929,57.0033,268.22,4.01,321.96,0.058,,1,3,13,12,,,,-0.036,0.046,-0.111,,*1F
1684378344539309464,147,1684378344538838863,gps,$KSXT,20230518033233.15,114.20877533,22.69096929,57.0033,270.55,2.52,321.96,0.058,,1,3,13,12,,,,-0.036,0.046,-0.111,,*13
1684378344587742328,148,1684378344587427139,gps,$KSXT,20230518033233.20,114.20877533,22.69096929,57.0033,270.84,3.00,321.96,0.058,,1,3,13,12,,,,-0.036,0.046,-0.111,,*1F
1684378344634960792,149,1684378344634512901,gps,$KSXT,20230518033233.25,114.20877533,22.69096929,57.0033,269.83,4.79,321.96,0.058,,1,3,13,12,,,,-0.036,0.046,-0.111,,*1C
1684378344687942232,150,1684378344687591075,gps,$KSXT,20230518033233.30,114.20877533,22.69096929,57.0033,269.11,7.13,321.96,0.058,,1,3,13,12,,,,-0.036,0.046,-0.111,,*1C
1684378344735315896,151,1684378344735017776,gps,$KSXT,20230518033233.35,114.20877533,22.69096929,57.0033,271.45,3.96,321.96,0.058,,1,3,12,12,,,,-0.036,0.046,-0.111,,*19
1684378344785730872,152,1684378344785210371,gps,$KSXT,20230518033233.40,114.20877533,22.69096929,57.0033,268.92,2.57,321.96,0.058,,1,3,13,12,,,,-0.036,0.046,-0.111,,*14
1684378344837821112,153,1684378344837503433,gps,$KSXT,20230518033233.45,114.20877533,22.69096929,57.0033,270.19,3.27,321.96,0.058,,1,3,13,12,,,,-0.036,0.046,-0.111,,*1D
1684378344887729144,154,1684378344887439012,gps,$KSXT,20230518033233.50,114.20877533,22.69096929,57.0033,271.42,2.92,321.96,0.058,,1,3,13,12,,,,-0.036,0.046,-0.111,,*19
1684378344938426136,155,1684378344938044309,gps,$KSXT,20230518033233.55,114.20877533,22.69096929,57.0033,271.28,2.41,321.96,0.058,,1,3,12,12,,,,-0.036,0.046,-0.111,,*1F
1684378344984995608,156,1684378344984698057,gps,$KSXT,20230518033233.60,114.20877533,22.69096929,57.0033,268.87,3.39,321.96,0.058,,1,3,13,12,,,,-0.036,0.046,-0.111,,*1B
1684378345037909816,157,1684378345037386655,gps,$KSXT,20230518033233.65,114.20877533,22.69096929,57.0033,270.21,0.48,321.96,0.058,,1,3,13,12,,,,-0.036,0.046,-0.111,,*1E
1684378345084994392,158,1684378345084608793,gps,$KSXT,20230518033233.70,114.20877533,22.69096929,57.0033,269.80,2.86,321.96,0.058,,1,3,13,12,,,,-0.036,0.046,-0.111,,*19
1684378345137551576,159,1684378345137276649,gps,$KSXT,20230518033233.75,114.20877533,22.69096929,57.0033,268.26,4.09,321.96,0.058,,1,3,13,12,,,,-0.036,0.046,-0.111,,*10
1684378345184822488,160,1684378345184475421,gps,$KSXT,20230518033233.80,114.20877533,22.69096929,57.0033,268.66,4.54,321.96,0.058,,1,3,13,12,,,,-0.036,0.046,-0.111,,*16
1684378345238477592,161,1684378345238081693,gps,$KSXT,20230518033233.85,114.20877533,22.69096929,57.0033,267.22,3.95,321.96,0.058,,1,3,13,12,,,,-0.036,0.046,-0.111,,*16
1684378345289026456,162,1684378345288578510,gps,$KSXT,20230518033233.90,114.20877533,22.69096929,57.0033,271.32,3.16,321.96,0.058,,1,3,12,12,,,,-0.036,0.046,-0.111,,*1E
1684378345337958232,163,1684378345337582826,gps,$KSXT,20230518033233.95,114.20877533,22.69096929,57.0033,268.16,3.43,321.96,0.058,,1,3,13,12,,,,-0.036,0.046,-0.111,,*14
1684378345404837592,164,1684378345404408931,gps,$KSXT,20230518033234.00,114.20877564,22.69096927,56.9526,269.04,3.03,241.00,0.009,,1,3,13,14,,,,-0.008,-0.004,-0.049,,*3C
1684378345439380824,165,1684378345438958168,gps,$KSXT,20230518033234.05,114.20877564,22.69096927,56.9526,269.02,4.76,241.00,0.009,,1,3,13,14,,,,-0.008,-0.004,-0.049,,*3A
1684378345489735544,166,1684378345489288091,gps,$KSXT,20230518033234.10,114.20877564,22.69096927,56.9526,269.73,0.91,241.00,0.009,,1,3,12,14,,,,-0.008,-0.004,-0.049,,*34
1684378345539537752,167,1684378345539044141,gps,$KSXT,20230518033234.15,114.20877564,22.69096927,56.9526,270.87,0.39,241.00,0.009,,1,3,15,14,,,,-0.008,-0.004,-0.049,,*37
1684378345588287576,168,1684378345588004350,gps,$KSXT,20230518033234.20,114.20877564,22.69096927,56.9526,270.65,-0.62,241.00,0.009,,1,3,15,14,,,,-0.008,-0.004,-0.049,,*1E
1684378345638133432,169,1684378345637843132,gps,$KSXT,20230518033234.25,114.20877564,22.69096927,56.9526,270.88,1.30,241.00,0.009,,1,3,15,14,,,,-0.008,-0.004,-0.049,,*33
1684378345689128344,170,1684378345687933206,gps,$KSXT,20230518033234.30,114.20877564,22.69096927,56.9526,271.76,2.88,241.00,0.009,,1,3,15,14,,,,-0.008,-0.004,-0.049,,*37
1684378345735164248,171,1684378345734871149,gps,$KSXT,20230518033234.35,114.20877564,22.69096927,56.9526,270.16,1.15,241.00,0.009,,1,3,15,14,,,,-0.008,-0.004,-0.049,,*32
1684378345787928504,172,1684378345787574768,gps,$KSXT,20230518033234.40,114.20877564,22.69096927,56.9526,270.37,2.22,241.00,0.009,,1,3,15,14,,,,-0.008,-0.004,-0.049,,*34
1684378345838219544,173,1684378345837795734,gps,$KSXT,20230518033234.45,114.20877564,22.69096927,56.9526,270.14,1.87,241.00,0.009,,1,3,15,14,,,,-0.008,-0.004,-0.049,,*3C
1684378345885252504,174,1684378345884922027,gps,$KSXT,20230518033234.50,114.20877564,22.69096927,56.9526,270.38,1.94,241.00,0.009,,1,3,15,14,,,,-0.008,-0.004,-0.049,,*34
1684378345935337816,175,1684378345935016870,gps,$KSXT,20230518033234.55,114.20877564,22.69096927,56.9526,271.00,1.54,241.00,0.009,,1,3,15,14,,,,-0.008,-0.004,-0.049,,*37
1684378345988097848,176,1684378345987746715,gps,$KSXT,20230518033234.60,114.20877564,22.69096927,56.9526,270.30,2.38,241.00,0.009,,1,3,15,14,,,,-0.008,-0.004,-0.049,,*3A
1684378346038114520,177,1684378346037779569,gps,$KSXT,20230518033234.65,114.20877564,22.69096927,56.9526,271.19,1.22,241.00,0.009,,1,3,15,14,,,,-0.008,-0.004,-0.049,,*3D
1684378346087996856,178,1684378346087603092,gps,$KSXT,20230518033234.70,114.20877564,22.69096927,56.9526,269.93,2.46,241.00,0.009,,1,3,15,14,,,,-0.008,-0.004,-0.049,,*33
1684378346138775576,179,1684378346137679576,gps,$KSXT,20230518033234.75,114.20877564,22.69096927,56.9526,270.20,2.41,241.00,0.009,,1,3,15,14,,,,-0.008,-0.004,-0.049,,*31
1684378346188075096,180,1684378346187577247,gps,$KSXT,20230518033234.80,114.20877564,22.69096927,56.9526,270.00,2.78,241.00,0.009,,1,3,15,14,,,,-0.008,-0.004,-0.049,,*33
1684378346235125720,181,1684378346234738826,gps,$KSXT,20230518033234.85,114.20877564,22.69096927,56.9526,270.98,1.54,241.00,0.009,,1,3,15,14,,,,-0.008,-0.004,-0.049,,*3A
1684378346285063896,182,1684378346284701347,gps,$KSXT,20230518033234.90,114.20877564,22.69096927,56.9526,271.45,3.25,241.00,0.009,,1,3,15,14,,,,-0.008,-0.004,-0.049,,*3B
1684378346337900952,183,1684378346337488889,gps,$KSXT,20230518033234.95,114.20877564,22.69096927,56.9526,271.71,4.40,241.00,0.009,,1,3,15,14,,,,-0.008,-0.004,-0.049,,*3D
1684378346405109624,184,1684378346404844999,gps,$KSXT,20230518033235.00,114.20877580,22.69096910,56.8701,272.57,2.20,255.99,0.018,,1,3,15,14,,,,-0.018,-0.004,-0.050,,*33
1684378346436493528,185,1684378346436143875,gps,$KSXT,20230518033235.05,114.20877580,22.69096910,56.8701,270.49,2.94,255.99,0.018,,1,3,15,14,,,,-0.018,-0.004,-0.050,,*34
1684378346486698840,186,1684378346486107826,gps,$KSXT,20230518033235.10,114.20877580,22.69096910,56.8701,270.21,4.41,255.99,0.018,,1,3,15,14,,,,-0.018,-0.004,-0.050,,*30
1684378346543471288,187,1684378346542942762,gps,$KSXT,20230518033235.15,114.20877580,22.69096910,56.8701,269.20,1.41,255.99,0.018,,1,3,15,14,,,,-0.018,-0.004,-0.050,,*39
1684378346586853912,188,1684378346586480855,gps,$KSXT,20230518033235.20,114.20877580,22.69096910,56.8701,270.70,1.97,255.99,0.018,,1,3,15,14,,,,-0.018,-0.004,-0.050,,*39
1684378346638479800,189,1684378346637884855,gps,$KSXT,20230518033235.25,114.20877580,22.69096910,56.8701,271.56,1.99,255.99,0.018,,1,3,15,14,,,,-0.018,-0.004,-0.050,,*37
1684378346689301528,190,1684378346688795566,gps,$KSXT,20230518033235.30,114.20877580,22.69096910,56.8701,269.78,1.41,255.99,0.018,,1,3,13,14,,,,-0.018,-0.004,-0.050,,*35
1684378346737840984,191,1684378346737434148,gps,$KSXT,20230518033235.35,114.20877580,22.69096910,56.8701,269.36,0.53,255.99,0.018,,1,3,13,14,,,,-0.018,-0.004,-0.050,,*38
1684378346787645272,192,1684378346787360429,gps,$KSXT,20230518033235.40,114.20877580,22.69096910,56.8701,269.23,0.28,255.99,0.018,,1,3,13,14,,,,-0.018,-0.004,-0.050,,*32
1684378346837806648,193,1684378346837471246,gps,$KSXT,20230518033235.45,114.20877580,22.69096910,56.8701,269.08,2.44,255.99,0.018,,1,3,13,14,,,,-0.018,-0.004,-0.050,,*36
1684378346885065048,194,1684378346884767770,gps,$KSXT,20230518033235.50,114.20877580,22.69096910,56.8701,270.66,2.72,255.99,0.018,,1,3,13,14,,,,-0.018,-0.004,-0.050,,*37
1684378346937938136,195,1684378346937556982,gps,$KSXT,20230518033235.55,114.20877580,22.69096910,56.8701,270.63,2.48,255.99,0.018,,1,3,13,14,,,,-0.018,-0.004,-0.050,,*3E
1684378346988039768,196,1684378346987688302,gps,$KSXT,20230518033235.60,114.20877580,22.69096910,56.8701,271.17,4.15,255.99,0.018,,1,3,13,14,,,,-0.018,-0.004,-0.050,,*34
1684378347037989208,197,1684378347037607908,gps,$KSXT,20230518033235.65,114.20877580,22.69096910,56.8701,269.92,1.76,255.99,0.018,,1,3,13,14,,,,-0.018,-0.004,-0.050,,*35
1684378347085421272,198,1684378347085084438,gps,$KSXT,20230518033235.70,114.20877580,22.69096910,56.8701,269.93,0.25,255.99,0.018,,1,3,13,14,,,,-0.018,-0.004,-0.050,,*37
1684378347138089048,199,1684378347137726306,gps,$KSXT,20230518033235.75,114.20877580,22.69096910,56.8701,269.31,-0.57,255.99,0.018,,1,3,13,14,,,,-0.018,-0.004,-0.050,,*12
1684378347187699384,200,1684378347187403678,gps,$KSXT,20230518033235.80,114.20877580,22.69096910,56.8701,270.08,0.41,255.99,0.018,,1,3,13,14,,,,-0.018,-0.004,-0.050,,*30
1684378347235316344,201,1684378347234961509,gps,$KSXT,20230518033235.85,114.20877580,22.69096910,56.8701,269.82,1.62,255.99,0.018,,1,3,13,14,,,,-0.018,-0.004,-0.050,,*3F
1684378347287865784,202,1684378347287480592,gps,$KSXT,20230518033235.90,114.20877580,22.69096910,56.8701,270.93,1.01,255.99,0.018,,1,3,13,14,,,,-0.018,-0.004,-0.050,,*36
1684378347337985848,203,1684378347337547063,gps,$KSXT,20230518033235.95,114.20877580,22.69096910,56.8701,270.77,2.29,255.99,0.018,,1,3,13,14,,,,-0.018,-0.004,-0.050,,*30
1684378347404343960,204,1684378347404076814,gps,$KSXT,20230518033236.00,114.20877624,22.69096859,56.8481,270.49,3.25,284.18,0.053,,1,3,13,14,,,,-0.051,0.013,-0.040,,*18
1684378347439397560,205,1684378347439123630,gps,$KSXT,20230518033236.05,114.20877624,22.69096859,56.8481,271.04,3.74,284.18,0.053,,1,3,13,14,,,,-0.051,0.013,-0.040,,*11
1684378347489211032,206,1684378347488900423,gps,$KSXT,20230518033236.10,114.20877624,22.69096859,56.8481,272.20,2.95,284.18,0.053,,1,3,13,14,,,,-0.051,0.013,-0.040,,*1E
1684378347539618488,207,1684378347539317846,gps,$KSXT,20230518033236.15,114.20877624,22.69096859,56.8481,269.98,7.05,284.18,0.053,,1,3,12,14,,,,-0.051,0.013,-0.040,,*1F
1684378347586233528,208,1684378347585871458,gps,$KSXT,20230518033236.20,114.20877624,22.69096859,56.8481,270.74,7.67,284.18,0.053,,1,3,13,14,,,,-0.051,0.013,-0.040,,*16
1684378347638215864,209,1684378347637888669,gps,$KSXT,20230518033236.25,114.20877624,22.69096859,56.8481,268.89,7.13,284.18,0.053,,1,3,12,14,,,,-0.051,0.013,-0.040,,*1A
1684378347688021272,210,1684378347687693595,gps,$KSXT,20230518033236.30,114.20877624,22.69096859,56.8481,268.78,8.11,284.18,0.053,,1,3,13,14,,,,-0.051,0.013,-0.040,,*1C
1684378347735500632,211,1684378347735032081,gps,$KSXT,20230518033236.35,114.20877624,22.69096859,56.8481,269.44,4.81,284.18,0.053,,1,3,12,14,,,,-0.051,0.013,-0.040,,*13
1684378347788139032,212,1684378347787834644,gps,$KSXT,20230518033236.40,114.20877624,22.69096859,56.8481,268.87,4.19,284.18,0.053,,1,3,12,14,,,,-0.051,0.013,-0.040,,*1E
1684378347838030904,213,1684378347837673902,gps,$KSXT,20230518033236.45,114.20877624,22.69096859,56.8481,269.05,7.45,284.18,0.053,,1,3,13,14,,,,-0.051,0.013,-0.040,,*1B
1684378347888018040,214,1684378347887542963,gps,$KSXT,20230518033236.50,114.20877624,22.69096859,56.8481,268.56,5.70,284.18,0.053,,1,3,13,14,,,,-0.051,0.013,-0.040,,*1C
1684378347937806040,215,1684378347937463521,gps,$KSXT,20230518033236.55,114.20877624,22.69096859,56.8481,269.11,5.56,284.18,0.053,,1,3,13,14,,,,-0.051,0.013,-0.040,,*1F
1684378347985264280,216,1684378347984949350,gps,$KSXT,20230518033236.60,114.20877624,22.69096859,56.8481,271.11,3.98,284.18,0.053,,1,3,12,14,,,,-0.051,0.013,-0.040,,*15
1684378348037902616,217,1684378348037544965,gps,$KSXT,20230518033236.65,114.20877624,22.69096859,56.8481,268.19,7.95,284.18,0.053,,1,3,13,14,,,,-0.051,0.013,-0.040,,*18
1684378348085308216,218,1684378348085017681,gps,$KSXT,20230518033236.70,114.20877624,22.69096859,56.8481,270.81,4.33,284.18,0.053,,1,3,12,14,,,,-0.051,0.013,-0.040,,*1A
1684378348135093112,219,1684378348134685277,gps,$KSXT,20230518033236.75,114.20877624,22.69096859,56.8481,269.84,4.71,284.18,0.053,,1,3,13,14,,,,-0.051,0.013,-0.040,,*15
1684378348187788408,220,1684378348187365770,gps,$KSXT,20230518033236.80,114.20877624,22.69096859,56.8481,267.40,5.12,284.18,0.053,,1,3,13,14,,,,-0.051,0.013,-0.040,,*1D
1684378348238126200,221,1684378348237707853,gps,$KSXT,20230518033236.85,114.20877624,22.69096859,56.8481,268.17,6.58,284.18,0.053,,1,3,13,14,,,,-0.051,0.013,-0.040,,*18
1684378348285045720,222,1684378348284734010,gps,$KSXT,20230518033236.90,114.20877624,22.69096859,56.8481,269.63,5.90,284.18,0.053,,1,3,13,14,,,,-0.051,0.013,-0.040,,*19
1684378348338121944,223,1684378348337759017,gps,$KSXT,20230518033236.95,114.20877624,22.69096859,56.8481,268.16,7.06,284.18,0.053,,1,3,13,14,,,,-0.051,0.013,-0.040,,*12
1684378348405059416,224,1684378348404617547,gps,$KSXT,20230518033237.00,114.20877652,22.69096755,56.7736,269.75,8.34,257.48,0.068,,1,3,13,14,,,,-0.066,-0.015,-0.102,,*3C
1684378348437104952,225,1684378348436758995,gps,$KSXT,20230518033237.05,114.20877652,22.69096755,56.7736,268.81,8.03,257.48,0.068,,1,3,13,14,,,,-0.066,-0.015,-0.102,,*37
1684378348489415128,226,1684378348489052534,gps,$KSXT,20230518033237.10,114.20877652,22.69096755,56.7736,269.87,8.03,257.48,0.068,,1,3,13,14,,,,-0.066,-0.015,-0.102,,*34
1684378348538326840,227,1684378348536438941,gps,$KSXT,20230518033237.15,114.20877652,22.69096755,56.7736,269.11,5.39,257.48,0.068,,1,3,14,14,,,,-0.066,-0.015,-0.102,,*3D
1684378348588134168,228,1684378348587739944,gps,$KSXT,20230518033237.20,114.20877652,22.69096755,56.7736,268.84,6.24,257.48,0.068,,1,3,14,14,,,,-0.066,-0.015,-0.102,,*39
1684378348635144280,229,1684378348634828090,gps,$KSXT,20230518033237.25,114.20877652,22.69096755,56.7736,268.53,3.80,257.48,0.068,,1,3,14,14,,,,-0.066,-0.015,-0.102,,*3D
1684378348688099256,230,1684378348687749385,gps,$KSXT,20230518033237.30,114.20877652,22.69096755,56.7736,267.68,3.18,257.48,0.068,,1,3,14,14,,,,-0.066,-0.015,-0.102,,*3F
1684378348735029624,231,1684378348734674453,gps,$KSXT,20230518033237.35,114.20877652,22.69096755,56.7736,268.01,3.40,257.48,0.068,,1,3,14,14,,,,-0.066,-0.015,-0.102,,*37
1684378348788316888,232,1684378348787847995,gps,$KSXT,20230518033237.40,114.20877652,22.69096755,56.7736,269.36,2.44,257.48,0.068,,1,3,13,14,,,,-0.066,-0.015,-0.102,,*32
1684378348838228280,233,1684378348837793588,gps,$KSXT,20230518033237.45,114.20877652,22.69096755,56.7736,267.74,4.91,257.48,0.068,,1,3,14,14,,,,-0.066,-0.015,-0.102,,*36
1684378348885597048,234,1684378348885143995,gps,$KSXT,20230518033237.50,114.20877652,22.69096755,56.7736,267.25,3.63,257.48,0.068,,1,3,14,14,,,,-0.066,-0.015,-0.102,,*3C
1684378348938173240,235,1684378348937855958,gps,$KSXT,20230518033237.55,114.20877652,22.69096755,56.7736,267.86,5.60,257.48,0.068,,1,3,14,14,,,,-0.066,-0.015,-0.102,,*35
1684378348988590552,236,1684378348987609148,gps,$KSXT,20230518033237.60,114.20877652,22.69096755,56.7736,269.60,2.36,257.48,0.068,,1,3,13,14,,,,-0.066,-0.015,-0.102,,*36
1684378349037860920,237,1684378349037529945,gps,$KSXT,20230518033237.65,114.20877652,22.69096755,56.7736,269.71,3.63,257.48,0.068,,1,3,13,14,,,,-0.066,-0.015,-0.102,,*32
1684378349087987832,238,1684378349087682962,gps,$KSXT,20230518033237.70,114.20877652,22.69096755,56.7736,269.72,2.96,257.48,0.068,,1,3,13,14,,,,-0.066,-0.015,-0.102,,*3E
1684378349137906296,239,1684378349137585163,gps,$KSXT,20230518033237.75,114.20877652,22.69096755,56.7736,269.28,3.41,257.48,0.068,,1,3,13,14,,,,-0.066,-0.015,-0.102,,*3F
1684378349187829912,240,1684378349187521934,gps,$KSXT,20230518033237.80,114.20877652,22.69096755,56.7736,268.87,2.93,257.48,0.068,,1,3,13,14,,,,-0.066,-0.015,-0.102,,*3F
1684378349235135480,241,1684378349234797239,gps,$KSXT,20230518033237.85,114.20877652,22.69096755,56.7736,268.25,3.31,257.48,0.068,,1,3,13,14,,,,-0.066,-0.015,-0.102,,*3B
1684378349285002360,242,1684378349284683227,gps,$KSXT,20230518033237.90,114.20877652,22.69096755,56.7736,270.51,1.90,257.48,0.068,,1,3,13,14,,,,-0.066,-0.015,-0.102,,*3C
1684378349335742488,243,1684378349335240602,gps,$KSXT,20230518033237.95,114.20877652,22.69096755,56.7736,268.85,2.60,257.48,0.068,,1,3,13,14,,,,-0.066,-0.015,-0.102,,*35
1684378349405195000,244,1684378349404710769,gps,$KSXT,20230518033238.00,114.20877670,22.69096713,56.7472,268.25,4.58,192.18,0.008,,1,3,13,14,,,,-0.002,-0.007,-0.119,,*32
1684378349440225016,245,1684378349439775705,gps,$KSXT,20230518033238.05,114.20877670,22.69096713,56.7472,268.85,3.43,192.18,0.008,,1,3,13,14,,,,-0.002,-0.007,-0.119,,*30
1684378349489598712,246,1684378349489156961,gps,$KSXT,20230518033238.10,114.20877670,22.69096713,56.7472,269.99,5.45,192.18,0.008,,1,3,13,14,,,,-0.002,-0.007,-0.119,,*38
1684378349539524056,247,1684378349539196729,gps,$KSXT,20230518033238.15,114.20877670,22.69096713,56.7472,270.18,5.05,192.18,0.008,,1,3,14,14,,,,-0.002,-0.007,-0.119,,*3F
1684378349588651864,248,1684378349588253974,gps,$KSXT,20230518033238.20,114.20877670,22.69096713,56.7472,271.13,5.26,192.18,0.008,,1,3,14,14,,,,-0.002,-0.007,-0.119,,*32
1684378349639002008,249,1684378349638603687,gps,$KSXT,20230518033238.25,114.20877670,22.69096713,56.7472,270.37,5.11,192.18,0.008,,1,3,14,14,,,,-0.002,-0.007,-0.119,,*34
1684378349686723608,250,1684378349686267137,gps,$KSXT,20230518033238.30,114.20877670,22.69096713,56.7472,269.35,5.46,192.18,0.008,,1,3,14,14,,,,-0.002,-0.007,-0.119,,*38
1684378349738798776,251,1684378349738348484,gps,$KSXT,20230518033238.35,114.20877670,22.69096713,56.7472,268.93,3.71,192.18,0.008,,1,3,14,14,,,,-0.002,-0.007,-0.119,,*32
1684378349787885496,252,1684378349787505865,gps,$KSXT,20230518033238.40,114.20877670,22.69096713,56.7472,268.79,5.18,192.18,0.008,,1,3,14,14,,,,-0.002,-0.007,-0.119,,*3D
1684378349839002872,253,1684378349838504791,gps,$KSXT,20230518033238.45,114.20877670,22.69096713,56.7472,269.17,4.92,192.18,0.008,,1,3,14,14,,,,-0.002,-0.007,-0.119,,*32
1684378349887964216,254,1684378349887561321,gps,$KSXT,20230518033238.50,114.20877670,22.69096713,56.7472,269.65,3.58,192.18,0.008,,1,3,14,14,,,,-0.002,-0.007,-0.119,,*32
1684378349938854232,255,1684378349938500881,gps,$KSXT,20230518033238.55,114.20877670,22.69096713,56.7472,270.82,5.67,192.18,0.008,,1,3,14,14,,,,-0.002,-0.007,-0.119,,*3C
1684378349988924312,256,1684378349988437175,gps,$KSXT,20230518033238.60,114.20877670,22.69096713,56.7472,270.20,4.04,192.18,0.008,,1,3,14,14,,,,-0.002,-0.007,-0.119,,*36
1684378350036651288,257,1684378350036145925,gps,$KSXT,20230518033238.65,114.20877670,22.69096713,56.7472,271.25,5.89,192.18,0.008,,1,3,14,14,,,,-0.002,-0.007,-0.119,,*33
1684378350085022424,258,1684378350084727525,gps,$KSXT,20230518033238.70,114.20877670,22.69096713,56.7472,269.54,4.06,192.18,0.008,,1,3,14,14,,,,-0.002,-0.007,-0.119,,*3E
1684378350139214648,259,1684378350138821125,gps,$KSXT,20230518033238.75,114.20877670,22.69096713,56.7472,270.49,5.68,192.18,0.008,,1,3,14,14,,,,-0.002,-0.007,-0.119,,*36
1684378350189607096,260,1684378350189168214,gps,$KSXT,20230518033238.80,114.20877670,22.69096713,56.7472,270.36,4.46,192.18,0.008,,1,3,14,14,,,,-0.002,-0.007,-0.119,,*39
1684378350236360472,261,1684378350235877275,gps,$KSXT,20230518033238.85,114.20877670,22.69096713,56.7472,270.55,4.71,192.18,0.008,,1,3,14,14,,,,-0.002,-0.007,-0.119,,*3D
1684378350289493048,262,1684378350289043188,gps,$KSXT,20230518033238.90,114.20877670,22.69096713,56.7472,270.64,4.60,192.18,0.008,,1,3,14,14,,,,-0.002,-0.007,-0.119,,*3B
1684378350335133528,263,1684378350334700107,gps,$KSXT,20230518033238.95,114.20877670,22.69096713,56.7472,270.32,4.83,192.18,0.008,,1,3,14,14,,,,-0.002,-0.007,-0.119,,*30
1684378350404228664,264,1684378350403933763,gps,$KSXT,20230518033239.00,114.20877704,22.69096605,56.6766,269.61,5.45,109.84,0.116,,1,3,14,14,,,,0.109,-0.039,0.383,,*34
1684378350439021144,265,1684378350438716411,gps,$KSXT,20230518033239.05,114.20877704,22.69096605,56.6766,270.01,4.06,109.84,0.116,,1,3,14,14,,,,0.109,-0.039,0.383,,*39
1684378350486399128,266,1684378350486055850,gps,$KSXT,20230518033239.10,114.20877704,22.69096605,56.6766,270.09,4.22,109.84,0.116,,1,3,14,14,,,,0.109,-0.039,0.383,,*33
1684378350539635864,267,1684378350539201736,gps,$KSXT,20230518033239.15,114.20877704,22.69096605,56.6766,268.51,3.94,109.84,0.116,,1,3,16,14,,,,0.109,-0.039,0.383,,*3A
1684378350587659768,268,1684378350587307691,gps,$KSXT,20230518033239.20,114.20877704,22.69096605,56.6766,268.56,2.43,109.84,0.116,,1,3,16,14,,,,0.109,-0.039,0.383,,*30
1684378350637624344,269,1684378350637233972,gps,$KSXT,20230518033239.25,114.20877704,22.69096605,56.6766,268.38,2.93,109.84,0.116,,1,3,16,14,,,,0.109,-0.039,0.383,,*30
1684378350685077816,270,1684378350684790372,gps,$KSXT,20230518033239.30,114.20877704,22.69096605,56.6766,268.81,4.98,109.84,0.116,,1,3,16,14,,,,0.109,-0.039,0.383,,*3B
1684378350738192408,271,1684378350737494707,gps,$KSXT,20230518033239.35,114.20877704,22.69096605,56.6766,268.53,5.40,109.84,0.116,,1,3,16,14,,,,0.109,-0.039,0.383,,*35
1684378350787561848,272,1684378350787246942,gps,$KSXT,20230518033239.40,114.20877704,22.69096605,56.6766,267.92,4.93,109.84,0.116,,1,3,16,14,,,,0.109,-0.039,0.383,,*3A
1684378350837913560,273,1684378350837389707,gps,$KSXT,20230518033239.45,114.20877704,22.69096605,56.6766,268.53,4.30,109.84,0.116,,1,3,16,14,,,,0.109,-0.039,0.383,,*34
1684378350887644760,274,1684378350887337446,gps,$KSXT,20230518033239.50,114.20877704,22.69096605,56.6766,268.72,4.76,109.84,0.116,,1,3,16,14,,,,0.109,-0.039,0.383,,*31
1684378350935085688,275,1684378350934736728,gps,$KSXT,20230518033239.55,114.20877704,22.69096605,56.6766,268.88,4.99,109.84,0.116,,1,3,16,14,,,,0.109,-0.039,0.383,,*30
1684378350987870488,276,1684378350987426519,gps,$KSXT,20230518033239.60,114.20877704,22.69096605,56.6766,268.62,5.25,109.84,0.116,,1,3,16,14,,,,0.109,-0.039,0.383,,*34
1684378351037879320,277,1684378351037358760,gps,$KSXT,20230518033239.65,114.20877704,22.69096605,56.6766,268.03,4.13,109.84,0.116,,1,3,16,14,,,,0.109,-0.039,0.383,,*32
1684378351087959416,278,1684378351087466478,gps,$KSXT,20230518033239.70,114.20877704,22.69096605,56.6766,268.08,5.70,109.84,0.116,,1,3,16,14,,,,0.109,-0.039,0.383,,*39
1684378351134845912,279,1684378351134523868,gps,$KSXT,20230518033239.75,114.20877704,22.69096605,56.6766,267.07,5.52,109.84,0.116,,1,3,16,14,,,,0.109,-0.039,0.383,,*3C
1684378351184701720,280,1684378351184373617,gps,$KSXT,20230518033239.80,114.20877704,22.69096605,56.6766,269.24,3.54,109.84,0.116,,1,3,16,14,,,,0.109,-0.039,0.383,,*39
1684378351235059224,281,1684378351234664201,gps,$KSXT,20230518033239.85,114.20877704,22.69096605,56.6766,268.30,3.52,109.84,0.116,,1,3,16,14,,,,0.109,-0.039,0.383,,*3E
1684378351287600824,282,1684378351287261724,gps,$KSXT,20230518033239.90,114.20877704,22.69096605,56.6766,269.30,5.75,109.84,0.116,,1,3,16,14,,,,0.109,-0.039,0.383,,*38
1684378351337749336,283,1684378351337366342,gps,$KSXT,20230518033239.95,114.20877704,22.69096605,56.6766,267.97,6.07,109.84,0.116,,1,3,16,14,,,,0.109,-0.039,0.383,,*38
1684378351404249400,284,1684378351403886079,gps,$KSXT,20230518033240.00,114.20877767,22.69096480,56.7367,268.46,5.50,86.28,0.064,,1,3,16,14,,,,0.064,0.004,0.206,,*27
1684378351438822200,285,1684378351438449621,gps,$KSXT,20230518033240.05,114.20877767,22.69096480,56.7367,268.21,5.56,86.28,0.064,,1,3,16,14,,,,0.064,0.004,0.206,,*25
1684378351485985112,286,1684378351485675334,gps,$KSXT,20230518033240.10,114.20877767,22.69096480,56.7367,268.21,5.78,86.28,0.064,,1,3,16,14,,,,0.064,0.004,0.206,,*2D
1684378351538558040,287,1684378351538180351,gps,$KSXT,20230518033240.15,114.20877767,22.69096480,56.7367,269.69,5.50,86.28,0.064,,1,3,16,14,,,,0.064,0.004,0.206,,*2F
1684378351587625880,288,1684378351587160348,gps,$KSXT,20230518033240.20,114.20877767,22.69096480,56.7367,267.74,6.22,86.28,0.064,,1,3,16,14,,,,0.064,0.004,0.206,,*2D
1684378351637845016,289,1684378351637404680,gps,$KSXT,20230518033240.25,114.20877767,22.69096480,56.7367,268.51,4.67,86.28,0.064,,1,3,16,14,,,,0.064,0.004,0.206,,*23
1684378351687607992,290,1684378351687128543,gps,$KSXT,20230518033240.30,114.20877767,22.69096480,56.7367,269.47,4.29,86.28,0.064,,1,3,16,14,,,,0.064,0.004,0.206,,*2B
1684378351739649112,291,1684378351737740516,gps,$KSXT,20230518033240.35,114.20877767,22.69096480,56.7367,269.68,3.59,86.28,0.064,,1,3,16,14,,,,0.064,0.004,0.206,,*23
1684378351787374072,292,1684378351787043809,gps,$KSXT,20230518033240.40,114.20877767,22.69096480,56.7367,269.35,4.60,86.28,0.064,,1,3,16,14,,,,0.064,0.004,0.206,,*24
1684378351837607256,293,1684378351837311744,gps,$KSXT,20230518033240.45,114.20877767,22.69096480,56.7367,269.88,4.24,86.28,0.064,,1,3,15,14,,,,0.064,0.004,0.206,,*24
1684378351887769272,294,1684378351887304544,gps,$KSXT,20230518033240.50,114.20877767,22.69096480,56.7367,269.59,3.16,86.28,0.064,,1,3,15,14,,,,0.064,0.004,0.206,,*2A
1684378351938356280,295,1684378351937915563,gps,$KSXT,20230518033240.55,114.20877767,22.69096480,56.7367,269.48,3.94,86.28,0.064,,1,3,15,14,,,,0.064,0.004,0.206,,*25
1684378351987358008,296,1684378351986999273,gps,$KSXT,20230518033240.60,114.20877767,22.69096480,56.7367,268.78,5.89,86.28,0.064,,1,3,15,14,,,,0.064,0.004,0.206,,*2B
1684378352037366392,297,1684378352036970853,gps,$KSXT,20230518033240.65,114.20877767,22.69096480,56.7367,268.01,5.33,86.28,0.064,,1,3,15,14,,,,0.064,0.004,0.206,,*21
1684378352084521752,298,1684378352084144115,gps,$KSXT,20230518033240.70,114.20877767,22.69096480,56.7367,269.29,3.82,86.28,0.064,,1,3,15,14,,,,0.064,0.004,0.206,,*22
1684378352137420120,299,1684378352137001991,gps,$KSXT,20230518033240.75,114.20877767,22.69096480,56.7367,268.36,2.03,86.28,0.064,,1,3,15,14,,,,0.064,0.004,0.206,,*20
1684378352187620120,300,1684378352186998128,gps,$KSXT,20230518033240.80,114.20877767,22.69096480,56.7367,269.88,2.61,86.28,0.064,,1,3,15,14,,,,0.064,0.004,0.206,,*2A
1684378352234769784,301,1684378352234184265,gps,$KSXT,20230518033240.85,114.20877767,22.69096480,56.7367,269.72,3.47,86.28,0.064,,1,3,15,14,,,,0.064,0.004,0.206,,*2F
1684378352287321144,302,1684378352287015438,gps,$KSXT,20230518033240.90,114.20877767,22.69096480,56.7367,269.15,5.14,86.28,0.064,,1,3,15,14,,,,0.064,0.004,0.206,,*2A
1684378352334677592,303,1684378352334313869,gps,$KSXT,20230518033240.95,114.20877767,22.69096480,56.7367,269.68,4.40,86.28,0.064,,1,3,15,14,,,,0.064,0.004,0.206,,*25
1684378352404339000,304,1684378352403999328,gps,$KSXT,20230518033241.00,114.20877812,22.69096375,56.7476,269.04,4.72,298.69,0.049,,1,3,15,14,,,,-0.043,0.024,0.012,,*3E
1684378352439054680,305,1684378352438743591,gps,$KSXT,20230518033241.05,114.20877812,22.69096375,56.7476,269.51,4.02,298.69,0.049,,1,3,15,14,,,,-0.043,0.024,0.012,,*3C
1684378352489064344,306,1684378352488683462,gps,$KSXT,20230518033241.10,114.20877812,22.69096375,56.7476,269.04,5.54,298.69,0.049,,1,3,15,14,,,,-0.043,0.024,0.012,,*3A
1684378352538824856,307,1684378352538471698,gps,$KSXT,20230518033241.15,114.20877812,22.69096375,56.7476,269.85,2.83,298.69,0.049,,1,3,15,14,,,,-0.043,0.024,0.012,,*3B
1684378352587699160,308,1684378352587240219,gps,$KSXT,20230518033241.20,114.20877812,22.69096375,56.7476,269.27,2.35,298.69,0.049,,1,3,15,14,,,,-0.043,0.024,0.012,,*38
1684378352637654296,309,1684378352637220621,gps,$KSXT,20230518033241.25,114.20877812,22.69096375,56.7476,268.77,3.03,298.69,0.049,,1,3,15,14,,,,-0.043,0.024,0.012,,*3D
1684378352687478264,310,1684378352687056541,gps,$KSXT,20230518033241.30,114.20877812,22.69096375,56.7476,269.81,3.03,298.69,0.049,,1,3,15,14,,,,-0.043,0.024,0.012,,*31
1684378352737579704,311,1684378352737183809,gps,$KSXT,20230518033241.35,114.20877812,22.69096375,56.7476,269.07,2.57,298.69,0.049,,1,3,15,14,,,,-0.043,0.024,0.012,,*3A
1684378352786895800,312,1684378352786559820,gps,$KSXT,20230518033241.40,114.20877812,22.69096375,56.7476,269.25,2.57,298.69,0.049,,1,3,15,14,,,,-0.043,0.024,0.012,,*38
1684378352838634648,313,1684378352837320804,gps,$KSXT,20230518033241.45,114.20877812,22.69096375,56.7476,269.79,3.14,298.69,0.049,,1,3,15,14,,,,-0.043,0.024,0.012,,*32
1684378352887688312,314,1684378352887331485,gps,$KSXT,20230518033241.50,114.20877812,22.69096375,56.7476,270.05,3.64,298.69,0.049,,1,3,15,14,,,,-0.043,0.024,0.012,,*32
1684378352937619288,315,1684378352937257766,gps,$KSXT,20230518033241.55,114.20877812,22.69096375,56.7476,270.24,2.83,298.69,0.049,,1,3,15,14,,,,-0.043,0.024,0.012,,*3C
1684378352988437560,316,1684378352987939834,gps,$KSXT,20230518033241.60,114.20877812,22.69096375,56.7476,269.25,2.93,298.69,0.049,,1,3,15,14,,,,-0.043,0.024,0.012,,*32
1684378353037144984,317,1684378353035504579,gps,$KSXT,20230518033241.65,114.20877812,22.69096375,56.7476,269.01,3.05,298.69,0.049,,1,3,15,14,,,,-0.043,0.024,0.012,,*3F
1684378353087486264,318,1684378353087130308,gps,$KSXT,20230518033241.70,114.20877812,22.69096375,56.7476,269.13,4.06,298.69,0.049,,1,3,15,14,,,,-0.043,0.024,0.012,,*3C
1684378353137442168,319,1684378353137017011,gps,$KSXT,20230518033241.75,114.20877812,22.69096375,56.7476,269.20,3.70,298.69,0.049,,1,3,15,14,,,,-0.043,0.024,0.012,,*3F
1684378353184134648,320,1684378353183740854,gps,$KSXT,20230518033241.80,114.20877812,22.69096375,56.7476,269.17,3.97,298.69,0.049,,1,3,15,14,,,,-0.043,0.024,0.012,,*38
1684378353236984664,321,1684378353236661195,gps,$KSXT,20230518033241.85,114.20877812,22.69096375,56.7476,269.97,2.46,298.69,0.049,,1,3,15,14,,,,-0.043,0.024,0.012,,*38
1684378353287402776,322,1684378353286983966,gps,$KSXT,20230518033241.90,114.20877812,22.69096375,56.7476,269.46,4.29,298.69,0.049,,1,3,15,14,,,,-0.043,0.024,0.012,,*3F
1684378353337420440,323,1684378353337095260,gps,$KSXT,20230518033241.95,114.20877812,22.69096375,56.7476,269.67,1.22,298.69,0.049,,1,3,15,14,,,,-0.043,0.024,0.012,,*37
1684378353404624760,324,1684378353404255390,gps,$KSXT,20230518033242.00,114.20877824,22.69096282,56.7057,269.86,2.44,107.01,0.056,,1,3,15,14,,,,0.054,-0.016,0.144,,*3F
1684378353439011544,325,1684378353438597679,gps,$KSXT,20230518033242.05,114.20877824,22.69096282,56.7057,270.09,1.63,107.01,0.056,,1,3,15,14,,,,0.054,-0.016,0.144,,*33
1684378353486439352,326,1684378353486096382,gps,$KSXT,20230518033242.10,114.20877824,22.69096282,56.7057,270.65,1.01,107.01,0.056,,1,3,15,14,,,,0.054,-0.016,0.144,,*39
1684378353539586392,327,1684378353539235830,gps,$KSXT,20230518033242.15,114.20877824,22.69096282,56.7057,269.98,3.27,107.01,0.056,,1,3,15,14,,,,0.054,-0.016,0.144,,*30
1684378353588307128,328,1684378353587930917,gps,$KSXT,20230518033242.20,114.20877824,22.69096282,56.7057,269.74,3.33,107.01,0.056,,1,3,15,14,,,,0.054,-0.016,0.144,,*31
1684378353638015032,329,1684378353637434959,gps,$KSXT,20230518033242.25,114.20877824,22.69096282,56.7057,269.92,5.53,107.01,0.056,,1,3,15,14,,,,0.054,-0.016,0.144,,*3C
1684378353687862168,330,1684378353687492370,gps,$KSXT,20230518033242.30,114.20877824,22.69096282,56.7057,269.70,4.85,107.01,0.056,,1,3,15,14,,,,0.054,-0.016,0.144,,*3E
1684378353738215384,331,1684378353737715721,gps,$KSXT,20230518033242.35,114.20877824,22.69096282,56.7057,269.88,1.91,107.01,0.056,,1,3,15,14,,,,0.054,-0.016,0.144,,*3C
1684378353784765176,332,1684378353784470796,gps,$KSXT,20230518033242.40,114.20877824,22.69096282,56.7057,270.11,3.04,107.01,0.056,,1,3,15,14,,,,0.054,-0.016,0.144,,*38
1684378353837750072,333,1684378353837356090,gps,$KSXT,20230518033242.45,114.20877824,22.69096282,56.7057,269.98,3.57,107.01,0.056,,1,3,15,14,,,,0.054,-0.016,0.144,,*32
1684378353887701784,334,1684378353887364149,gps,$KSXT,20230518033242.50,114.20877824,22.69096282,56.7057,270.65,3.06,107.01,0.056,,1,3,15,14,,,,0.054,-0.016,0.144,,*38
1684378353938173720,335,1684378353937797546,gps,$KSXT,20230518033242.55,114.20877824,22.69096282,56.7057,269.52,3.67,107.01,0.056,,1,3,15,14,,,,0.054,-0.016,0.144,,*36
1684378353987660248,336,1684378353987241983,gps,$KSXT,20230518033242.60,114.20877824,22.69096282,56.7057,270.30,4.70,107.01,0.056,,1,3,15,14,,,,0.054,-0.016,0.144,,*3D
1684378354037581592,337,1684378354037124395,gps,$KSXT,20230518033242.65,114.20877824,22.69096282,56.7057,270.16,3.27,107.01,0.056,,1,3,15,14,,,,0.054,-0.016,0.144,,*39
1684378354085237464,338,1684378354084519386,gps,$KSXT,20230518033242.70,114.20877824,22.69096282,56.7057,270.11,2.95,107.01,0.056,,1,3,15,14,,,,0.054,-0.016,0.144,,*32
1684378354134952984,339,1684378354134639501,gps,$KSXT,20230518033242.75,114.20877824,22.69096282,56.7057,270.50,3.23,107.01,0.056,,1,3,15,14,,,,0.054,-0.016,0.144,,*3E
1684378354187675224,340,1684378354187291622,gps,$KSXT,20230518033242.80,114.20877824,22.69096282,56.7057,270.61,5.55,107.01,0.056,,1,3,15,14,,,,0.054,-0.016,0.144,,*31
1684378354234894328,341,1684378354234489679,gps,$KSXT,20230518033242.85,114.20877824,22.69096282,56.7057,270.10,5.23,107.01,0.056,,1,3,15,14,,,,0.054,-0.016,0.144,,*33
1684378354287526136,342,1684378354287248849,gps,$KSXT,20230518033242.90,114.20877824,22.69096282,56.7057,270.37,3.21,107.01,0.056,,1,3,15,14,,,,0.054,-0.016,0.144,,*36
1684378354337776056,343,1684378354337399482,gps,$KSXT,20230518033242.95,114.20877824,22.69096282,56.7057,269.02,2.33,107.01,0.056,,1,3,15,14,,,,0.054,-0.016,0.144,,*3F
1684378354404510680,344,1684378354404179096,gps,$KSXT,20230518033243.00,114.20877856,22.69096265,56.7248,269.25,4.64,25.79,0.019,,1,3,15,14,,,,0.008,0.017,0.097,,*2C
1684378354439085080,345,1684378354438731193,gps,$KSXT,20230518033243.05,114.20877856,22.69096265,56.7248,270.14,3.66,25.79,0.019,,1,3,15,14,,,,0.008,0.017,0.097,,*26
1684378354485809560,346,1684378354485500335,gps,$KSXT,20230518033243.10,114.20877856,22.69096265,56.7248,269.88,3.92,25.79,0.019,,1,3,15,14,,,,0.008,0.017,0.097,,*24
1684378354538578424,347,1684378354538280725,gps,$KSXT,20230518033243.15,114.20877856,22.69096265,56.7248,269.29,3.10,25.79,0.019,,1,3,15,14,,,,0.008,0.017,0.097,,*20
1684378354587587512,348,1684378354587290048,gps,$KSXT,20230518033243.20,114.20877856,22.69096265,56.7248,269.84,4.34,25.79,0.019,,1,3,15,14,,,,0.008,0.017,0.097,,*20
1684378354638156728,349,1684378354637768983,gps,$KSXT,20230518033243.25,114.20877856,22.69096265,56.7248,269.81,4.14,25.79,0.019,,1,3,15,14,,,,0.008,0.017,0.097,,*22
1684378354685749208,350,1684378354685232400,gps,$KSXT,20230518033243.30,114.20877856,22.69096265,56.7248,270.62,3.67,25.79,0.019,,1,3,15,14,,,,0.008,0.017,0.097,,*20
1684378354735101656,351,1684378354734671115,gps,$KSXT,20230518033243.35,114.20877856,22.69096265,56.7248,269.75,3.89,25.79,0.019,,1,3,15,14,,,,0.008,0.017,0.097,,*2B
1684378354787824216,352,1684378354787475824,gps,$KSXT,20230518033243.40,114.20877856,22.69096265,56.7248,269.51,4.84,25.79,0.019,,1,3,15,14,,,,0.008,0.017,0.097,,*25
1684378354834941656,353,1684378354834582567,gps,$KSXT,20230518033243.45,114.20877856,22.69096265,56.7248,270.07,3.56,25.79,0.019,,1,3,15,14,,,,0.008,0.017,0.097,,*23
1684378354887768120,354,1684378354887399435,gps,$KSXT,20230518033243.50,114.20877856,22.69096265,56.7248,270.13,2.64,25.79,0.019,,1,3,15,14,,,,0.008,0.017,0.097,,*22
1684378354937681944,355,1684378354937286376,gps,$KSXT,20230518033243.55,114.20877856,22.69096265,56.7248,270.31,4.78,25.79,0.019,,1,3,15,14,,,,0.008,0.017,0.097,,*2C
1684378354984723928,356,1684378354984260559,gps,$KSXT,20230518033243.60,114.20877856,22.69096265,56.7248,269.37,5.48,25.79,0.019,,1,3,15,14,,,,0.008,0.017,0.097,,*26
1684378355037329688,357,1684378355036944389,gps,$KSXT,20230518033243.65,114.20877856,22.69096265,56.7248,269.79,5.61,25.79,0.019,,1,3,15,14,,,,0.008,0.017,0.097,,*22
1684378355087637048,358,1684378355087100982,gps,$KSXT,20230518033243.70,114.20877856,22.69096265,56.7248,269.98,5.62,25.79,0.019,,1,3,15,14,,,,0.008,0.017,0.097,,*2A
1684378355137575064,359,1684378355137110471,gps,$KSXT,20230518033243.75,114.20877856,22.69096265,56.7248,269.80,4.20,25.79,0.019,,1,3,15,14,,,,0.008,0.017,0.097,,*21
1684378355187278008,360,1684378355186848402,gps,$KSXT,20230518033243.80,114.20877856,22.69096265,56.7248,268.92,2.91,25.79,0.019,,1,3,15,14,,,,0.008,0.017,0.097,,*25
1684378355237190712,361,1684378355236901044,gps,$KSXT,20230518033243.85,114.20877856,22.69096265,56.7248,268.12,3.50,25.79,0.019,,1,3,15,14,,,,0.008,0.017,0.097,,*24
1684378355284612600,362,1684378355284205675,gps,$KSXT,20230518033243.90,114.20877856,22.69096265,56.7248,269.86,5.94,25.79,0.019,,1,3,15,14,,,,0.008,0.017,0.097,,*22
1684378355337311992,363,1684378355336975574,gps,$KSXT,20230518033243.95,114.20877856,22.69096265,56.7248,269.29,4.09,25.79,0.019,,1,3,15,14,,,,0.008,0.017,0.097,,*27
1684378355404243480,364,1684378355403828620,gps,$KSXT,20230518033244.00,114.20877877,22.69096260,56.7469,268.82,4.99,339.89,0.036,,1,3,15,14,,,,-0.013,0.034,0.082,,*38
1684378355438998776,365,1684378355438625574,gps,$KSXT,20230518033244.05,114.20877877,22.69096260,56.7469,269.09,3.52,339.89,0.036,,1,3,15,14,,,,-0.013,0.034,0.082,,*3F
1684378355489081528,366,1684378355488753318,gps,$KSXT,20230518033244.10,114.20877877,22.69096260,56.7469,269.12,3.08,339.89,0.036,,1,3,15,14,,,,-0.013,0.034,0.082,,*3E
1684378355536904248,367,1684378355536480426,gps,$KSXT,20230518033244.15,114.20877877,22.69096260,56.7469,268.85,3.03,339.89,0.036,,1,3,15,14,,,,-0.013,0.034,0.082,,*3F
1684378355584269944,368,1684378355583874464,gps,$KSXT,20230518033244.20,114.20877877,22.69096260,56.7469,269.70,1.07,339.89,0.036,,1,3,15,14,,,,-0.013,0.034,0.082,,*34
1684378355638192728,369,1684378355637700557,gps,$KSXT,20230518033244.25,114.20877877,22.69096260,56.7469,269.64,2.95,339.89,0.036,,1,3,15,14,,,,-0.013,0.034,0.082,,*3C
1684378355687666648,370,1684378355687267780,gps,$KSXT,20230518033244.30,114.20877877,22.69096260,56.7469,270.00,4.41,339.89,0.036,,1,3,15,14,,,,-0.013,0.034,0.082,,*3D
1684378355735439608,371,1684378355735079526,gps,$KSXT,20230518033244.35,114.20877877,22.69096260,56.7469,269.23,4.75,339.89,0.036,,1,3,15,14,,,,-0.013,0.034,0.082,,*36
1684378355787922456,372,1684378355787273406,gps,$KSXT,20230518033244.40,114.20877877,22.69096260,56.7469,270.29,1.51,339.89,0.036,,1,3,15,14,,,,-0.013,0.034,0.082,,*35
1684378355834739544,373,1684378355834400653,gps,$KSXT,20230518033244.45,114.20877877,22.69096260,56.7469,269.24,4.29,339.89,0.036,,1,3,15,14,,,,-0.013,0.034,0.082,,*3F
1684378355887569464,374,1684378355887243509,gps,$KSXT,20230518033244.50,114.20877877,22.69096260,56.7469,269.70,1.68,339.89,0.036,,1,3,15,14,,,,-0.013,0.034,0.082,,*3A
1684378355937768248,375,1684378355937199115,gps,$KSXT,20230518033244.55,114.20877877,22.69096260,56.7469,269.65,2.82,339.89,0.036,,1,3,15,14,,,,-0.013,0.034,0.082,,*3C
1684378355985226360,376,1684378355984451770,gps,$KSXT,20230518033244.60,114.20877877,22.69096260,56.7469,269.81,2.19,339.89,0.036,,1,3,15,14,,,,-0.013,0.034,0.082,,*32
1684378356037509944,377,1684378356037065029,gps,$KSXT,20230518033244.65,114.20877877,22.69096260,56.7469,269.83,2.86,339.89,0.036,,1,3,15,14,,,,-0.013,0.034,0.082,,*33
1684378356084749976,378,1684378356084458589,gps,$KSXT,20230518033244.70,114.20877877,22.69096260,56.7469,269.34,3.07,339.89,0.036,,1,3,15,14,,,,-0.013,0.034,0.082,,*33
1684378356137431032,379,1684378356137078762,gps,$KSXT,20230518033244.75,114.20877877,22.69096260,56.7469,268.83,1.28,339.89,0.036,,1,3,15,14,,,,-0.013,0.034,0.082,,*34
1684378356185453272,380,1684378356185092449,gps,$KSXT,20230518033244.80,114.20877877,22.69096260,56.7469,270.25,2.61,339.89,0.036,,1,3,15,14,,,,-0.013,0.034,0.082,,*35
1684378356237327960,381,1684378356236956357,gps,$KSXT,20230518033244.85,114.20877877,22.69096260,56.7469,269.99,2.90,339.89,0.036,,1,3,15,14,,,,-0.013,0.034,0.082,,*31
1684378356286958264,382,1684378356286554574,gps,$KSXT,20230518033244.90,114.20877877,22.69096260,56.7469,270.10,3.41,339.89,0.036,,1,3,15,14,,,,-0.013,0.034,0.082,,*31
1684378356337395736,383,1684378356337012529,gps,$KSXT,20230518033244.95,114.20877877,22.69096260,56.7469,270.01,3.12,339.89,0.036,,1,3,15,14,,,,-0.013,0.034,0.082,,*32
1684378356400464824,384,1684378356399998426,gps,$KSXT,20230518033245.00,114.20877882,22.69096198,56.7629,270.81,1.09,341.73,0.031,,1,3,15,12,,,,-0.010,0.030,0.053,,*37
1684378356435986680,385,1684378356435581922,gps,$KSXT,20230518033245.05,114.20877882,22.69096198,56.7629,269.85,3.76,341.73,0.031,,1,3,15,12,,,,-0.010,0.030,0.053,,*34
1684378356488885304,386,1684378356488564014,gps,$KSXT,20230518033245.10,114.20877882,22.69096198,56.7629,270.41,3.04,341.73,0.031,,1,3,15,12,,,,-0.010,0.030,0.053,,*35
1684378356536017528,387,1684378356535618543,gps,$KSXT,20230518033245.15,114.20877882,22.69096198,56.7629,270.25,1.62,341.73,0.031,,1,3,14,12,,,,-0.010,0.030,0.053,,*31
1684378356587696536,388,1684378356587211608,gps,$KSXT,20230518033245.20,114.20877882,22.69096198,56.7629,271.17,4.28,341.73,0.031,,1,3,14,12,,,,-0.010,0.030,0.053,,*3C
1684378356634729752,389,1684378356634219408,gps,$KSXT,20230518033245.25,114.20877882,22.69096198,56.7629,270.77,2.24,341.73,0.031,,1,3,14,12,,,,-0.010,0.030,0.053,,*34
1684378356687771864,390,1684378356687458276,gps,$KSXT,20230518033245.30,114.20877882,22.69096198,56.7629,271.08,3.63,341.73,0.031,,1,3,14,12,,,,-0.010,0.030,0.053,,*3B
1684378356737316952,391,1684378356736910820,gps,$KSXT,20230518033245.35,114.20877882,22.69096198,56.7629,271.04,3.99,341.73,0.031,,1,3,14,12,,,,-0.010,0.030,0.053,,*37
1684378356784748248,392,1684378356784332990,gps,$KSXT,20230518033245.40,114.20877882,22.69096198,56.7629,270.19,4.40,341.73,0.031,,1,3,14,12,,,,-0.010,0.030,0.053,,*3B
1684378356838090712,393,1684378356837733030,gps,$KSXT,20230518033245.45,114.20877882,22.69096198,56.7629,270.31,2.46,341.73,0.031,,1,3,14,12,,,,-0.010,0.030,0.053,,*34
1684378356888044728,394,1684378356887664318,gps,$KSXT,20230518033245.50,114.20877882,22.69096198,56.7629,271.90,3.81,341.73,0.031,,1,3,14,12,,,,-0.010,0.030,0.053,,*30
1684378356937580792,395,1684378356937216997,gps,$KSXT,20230518033245.55,114.20877882,22.69096198,56.7629,271.43,5.06,341.73,0.031,,1,3,14,12,,,,-0.010,0.030,0.053,,*32
1684378356987387320,396,1684378356986967086,gps,$KSXT,20230518033245.60,114.20877882,22.69096198,56.7629,271.19,4.04,341.73,0.031,,1,3,14,12,,,,-0.010,0.030,0.053,,*38
1684378357034054168,397,1684378357033706188,gps,$KSXT,20230518033245.65,114.20877882,22.69096198,56.7629,270.08,3.91,341.73,0.031,,1,3,14,12,,,,-0.010,0.030,0.053,,*37
1684378357087509976,398,1684378357087120056,gps,$KSXT,20230518033245.70,114.20877882,22.69096198,56.7629,269.79,4.00,341.73,0.031,,1,3,14,12,,,,-0.010,0.030,0.053,,*32
1684378357134556952,399,1684378357134178638,gps,$KSXT,20230518033245.75,114.20877882,22.69096198,56.7629,269.32,2.08,341.73,0.031,,1,3,14,12,,,,-0.010,0.030,0.053,,*36
1684378357187483736,400,1684378357187016010,gps,$KSXT,20230518033245.80,114.20877882,22.69096198,56.7629,268.14,2.68,341.73,0.031,,1,3,14,12,,,,-0.010,0.030,0.053,,*3F
1684378357234391960,401,1684378357234076499,gps,$KSXT,20230518033245.85,114.20877882,22.69096198,56.7629,269.04,4.11,341.73,0.031,,1,3,14,12,,,,-0.010,0.030,0.053,,*32
1684378357284816184,402,1684378357284196376,gps,$KSXT,20230518033245.90,114.20877882,22.69096198,56.7629,268.46,4.50,341.73,0.031,,1,3,14,12,,,,-0.010,0.030,0.053,,*34
1684378357337520184,403,1684378357337093591,gps,$KSXT,20230518033245.95,114.20877882,22.69096198,56.7629,270.09,7.46,341.73,0.031,,1,3,14,12,,,,-0.010,0.030,0.053,,*37
1684378357402287416,404,1684378357401178359,gps,$KSXT,20230518033246.00,114.20877877,22.69096184,56.7340,271.14,6.25,162.01,0.230,,1,3,14,14,,,,0.071,-0.219,0.109,,*3F
1684378357437409624,405,1684378357436611652,gps,$KSXT,20230518033246.05,114.20877877,22.69096184,56.7340,271.39,7.97,162.01,0.230,,1,3,14,14,,,,0.071,-0.219,0.109,,*3D
1684378357489057304,406,1684378357488707304,gps,$KSXT,20230518033246.10,114.20877877,22.69096184,56.7340,271.57,8.02,162.01,0.230,,1,3,14,14,,,,0.071,-0.219,0.109,,*32
1684378357538682360,407,1684378357537971973,gps,$KSXT,20230518033246.15,114.20877877,22.69096184,56.7340,269.54,9.42,162.01,0.230,,1,3,15,14,,,,0.071,-0.219,0.109,,*39
1684378357587203032,408,1684378357586815118,gps,$KSXT,20230518033246.20,114.20877877,22.69096184,56.7340,269.28,10.33,162.01,0.230,,1,3,15,14,,,,0.071,-0.219,0.109,,*0A
1684378357636961400,409,1684378357636569023,gps,$KSXT,20230518033246.25,114.20877877,22.69096184,56.7340,270.11,7.31,162.01,0.230,,1,3,15,14,,,,0.071,-0.219,0.109,,*39
1684378357684480568,410,1684378357684073448,gps,$KSXT,20230518033246.30,114.20877877,22.69096184,56.7340,269.10,6.54,162.01,0.230,,1,3,15,14,,,,0.071,-0.219,0.109,,*36
1684378357734103096,411,1684378357733795642,gps,$KSXT,20230518033246.35,114.20877877,22.69096184,56.7340,268.55,6.30,162.01,0.230,,1,3,15,14,,,,0.071,-0.219,0.109,,*31
1684378357786977752,412,1684378357786665678,gps,$KSXT,20230518033246.40,114.20877877,22.69096184,56.7340,268.78,4.45,162.01,0.230,,1,3,15,14,,,,0.071,-0.219,0.109,,*3C
1684378357834824248,413,1684378357834344148,gps,$KSXT,20230518033246.45,114.20877877,22.69096184,56.7340,269.50,2.55,162.01,0.230,,1,3,15,14,,,,0.071,-0.219,0.109,,*35
1684378357885044312,414,1684378357884370088,gps,$KSXT,20230518033246.50,114.20877877,22.69096184,56.7340,268.94,5.54,162.01,0.230,,1,3,15,14,,,,0.071,-0.219,0.109,,*3E
1684378357934533560,415,1684378357934247255,gps,$KSXT,20230518033246.55,114.20877877,22.69096184,56.7340,269.14,5.84,162.01,0.230,,1,3,15,14,,,,0.071,-0.219,0.109,,*3F
1684378357986926072,416,1684378357986509323,gps,$KSXT,20230518033246.60,114.20877877,22.69096184,56.7340,269.57,3.12,162.01,0.230,,1,3,15,14,,,,0.071,-0.219,0.109,,*37
1684378358037521048,417,1684378358037068605,gps,$KSXT,20230518033246.65,114.20877877,22.69096184,56.7340,269.92,3.19,162.01,0.230,,1,3,15,14,,,,0.071,-0.219,0.109,,*30
1684378358084745944,418,1684378358084355354,gps,$KSXT,20230518033246.70,114.20877877,22.69096184,56.7340,271.16,2.72,162.01,0.230,,1,3,15,14,,,,0.071,-0.219,0.109,,*3D
1684378358138083704,419,1684378358137113571,gps,$KSXT,20230518033246.75,114.20877877,22.69096184,56.7340,270.22,2.62,162.01,0.230,,1,3,15,14,,,,0.071,-0.219,0.109,,*3F
1684378358187307672,420,1684378358186939477,gps,$KSXT,20230518033246.80,114.20877877,22.69096184,56.7340,271.09,0.73,162.01,0.230,,1,3,15,14,,,,0.071,-0.219,0.109,,*3F
1684378358237853400,421,1684378358237352371,gps,$KSXT,20230518033246.85,114.20877877,22.69096184,56.7340,271.34,-0.02,162.01,0.230,,1,3,15,14,,,,0.071,-0.219,0.109,,*1F
1684378358287979960,422,1684378358287615776,gps,$KSXT,20230518033246.90,114.20877877,22.69096184,56.7340,272.16,-1.93,162.01,0.230,,1,3,15,14,,,,0.071,-0.219,0.109,,*11
1684378358338594200,423,1684378358337929010,gps,$KSXT,20230518033246.95,114.20877877,22.69096184,56.7340,272.37,-0.93,162.01,0.230,,1,3,15,14,,,,0.071,-0.219,0.109,,*16
1684378358404556888,424,1684378358404213428,gps,$KSXT,20230518033247.00,114.20877922,22.69096047,56.7846,272.74,-3.28,179.99,0.386,,1,3,15,14,,,,0.000,-0.386,0.703,,*17
1684378358439008760,425,1684378358438555240,gps,$KSXT,20230518033247.05,114.20877922,22.69096047,56.7846,272.81,-3.10,179.99,0.386,,1,3,15,14,,,,0.000,-0.386,0.703,,*13
1684378358489044440,426,1684378358488654851,gps,$KSXT,20230518033247.10,114.20877922,22.69096047,56.7846,273.68,-4.07,179.99,0.386,,1,3,15,14,,,,0.000,-0.386,0.703,,*10
1684378358539063928,427,1684378358538754463,gps,$KSXT,20230518033247.15,114.20877922,22.69096047,56.7846,272.48,0.58,179.99,0.386,,1,3,16,14,,,,0.000,-0.386,0.703,,*36
1684378358588012632,428,1684378358587646722,gps,$KSXT,20230518033247.20,114.20877922,22.69096047,56.7846,271.40,2.78,179.99,0.386,,1,3,16,14,,,,0.000,-0.386,0.703,,*3B
1684378358634670616,429,1684378358634310960,gps,$KSXT,20230518033247.25,114.20877922,22.69096047,56.7846,271.42,2.29,179.99,0.386,,1,3,16,14,,,,0.000,-0.386,0.703,,*38
1684378358688416184,430,1684378358688077926,gps,$KSXT,20230518033247.30,114.20877922,22.69096047,56.7846,270.91,3.70,179.99,0.386,,1,3,16,14,,,,0.000,-0.386,0.703,,*3E
1684378358737514584,431,1684378358737113714,gps,$KSXT,20230518033247.35,114.20877922,22.69096047,56.7846,271.73,1.86,179.99,0.386,,1,3,16,14,,,,0.000,-0.386,0.703,,*3D
1684378358784603160,432,1684378358784287452,gps,$KSXT,20230518033247.40,114.20877922,22.69096047,56.7846,272.16,1.42,179.99,0.386,,1,3,16,14,,,,0.000,-0.386,0.703,,*37
1684378358834676664,433,1684378358834376335,gps,$KSXT,20230518033247.45,114.20877922,22.69096047,56.7846,271.77,1.69,179.99,0.386,,1,3,16,14,,,,0.000,-0.386,0.703,,*3F
1684378358887658296,434,1684378358887319087,gps,$KSXT,20230518033247.50,114.20877922,22.69096047,56.7846,271.86,2.39,179.99,0.386,,1,3,16,14,,,,0.000,-0.386,0.703,,*33
1684378358934741016,435,1684378358934380054,gps,$KSXT,20230518033247.55,114.20877922,22.69096047,56.7846,271.70,0.50,179.99,0.386,,1,3,16,14,,,,0.000,-0.386,0.703,,*32
1684378358987799032,436,1684378358987501621,gps,$KSXT,20230518033247.60,114.20877922,22.69096047,56.7846,271.12,1.82,179.99,0.386,,1,3,16,14,,,,0.000,-0.386,0.703,,*3E
