%time,field.header.seq,field.header.stamp,field.header.frame_id,field.sentence,UTC,longitude,latitude,altitude,,,,,,,,,,,,,,,,,
1684310324177146208,7249,1684310324176835298,gps,$KSXT,20230517080640.90,114.20852909,22.68993064,57.6448,295.04,6.60,267.40,0.114,,3,3,26,25,6.524,7.263,0.263,-0.114,-0.005,0.025,,*3F
1684310324227258720,7250,1684310324226908445,gps,$KSXT,20230517080640.95,114.20852909,22.68993063,57.6470,294.84,6.74,257.51,0.087,,3,3,26,25,6.524,7.262,0.266,-0.085,-0.019,0.008,,*3D
1684310324283483968,7251,1684310324283143281,gps,$KSXT,20230517080641.00,114.20852908,22.68993064,57.6429,294.68,7.78,302.49,0.070,,3,3,26,25,6.523,7.262,0.262,-0.059,0.038,-0.104,,*39
1684310324328483904,7252,1684310324328069686,gps,$KSXT,20230517080641.05,114.20852908,22.68993065,57.6484,294.57,5.52,4.33,0.009,,3,3,26,25,6.523,7.263,0.267,0.001,0.009,0.072,,*31
1684310324379191808,7253,1684310324378822326,gps,$KSXT,20230517080641.10,114.20852903,22.68993066,57.6409,294.54,6.77,327.24,0.120,,3,3,26,25,6.518,7.265,0.260,-0.065,0.101,0.032,,*1A
1684310324428959680,7254,1684310324428663730,gps,$KSXT,20230517080641.15,114.20852906,22.68993068,57.6450,294.37,5.72,351.74,0.117,,3,3,26,25,6.521,7.267,0.264,-0.017,0.116,0.089,,*14
1684310324480148896,7255,1684310324479887008,gps,$KSXT,20230517080641.20,114.20852903,22.68993069,57.6189,294.05,6.89,327.01,0.130,,3,3,26,24,6.518,7.268,0.238,-0.071,0.109,-0.028,,*32
1684310324526893056,7256,1684310324526590347,gps,$KSXT,20230517080641.25,114.20852903,22.68993068,57.6182,294.46,7.17,40.58,0.021,,3,3,26,24,6.518,7.266,0.237,0.014,0.016,0.019,,*0C
1684310324578063904,7257,1684310324577678918,gps,$KSXT,20230517080641.30,114.20852903,22.68993066,57.6212,294.22,5.61,132.68,0.157,,3,3,26,24,6.517,7.265,0.240,0.116,-0.107,0.061,,*16
1684310324627244960,7258,1684310324626734495,gps,$KSXT,20230517080641.35,114.20852898,22.68993062,57.6239,294.99,4.70,194.12,0.173,,3,3,26,24,6.513,7.261,0.243,-0.042,-0.168,0.145,,*3B
1684310324677168864,7259,1684310324676845312,gps,$KSXT,20230517080641.40,114.20852900,22.68993062,57.6269,294.62,5.74,183.11,0.203,,3,3,26,24,6.514,7.260,0.246,-0.011,-0.203,0.115,,*32
1684310324727154336,7260,1684310324726814746,gps,$KSXT,20230517080641.45,114.20852897,22.68993060,57.6173,295.15,7.19,189.29,0.218,,3,3,26,24,6.512,7.258,0.236,-0.035,-0.215,0.083,,*34
1684310324777513120,7261,1684310324777083873,gps,$KSXT,20230517080641.50,114.20852900,22.68993059,57.6253,295.00,6.13,183.37,0.143,,3,3,26,24,6.514,7.257,0.244,-0.008,-0.143,0.066,,*3A
1684310324829282816,7262,1684310324826761245,gps,$KSXT,20230517080641.55,114.20852901,22.68993058,57.6178,294.96,7.51,159.81,0.143,,3,3,26,24,6.516,7.256,0.236,0.049,-0.134,-0.031,,*37
1684310324877405504,7263,1684310324877022981,gps,$KSXT,20230517080641.60,114.20852902,22.68993059,57.6240,294.87,6.15,125.75,0.086,,3,3,26,24,6.517,7.257,0.243,0.069,-0.050,0.076,,*1F
1684310324927031104,7264,1684310324926549196,gps,$KSXT,20230517080641.65,114.20852901,22.68993059,57.6268,294.68,7.42,50.80,0.051,,3,3,26,24,6.516,7.257,0.246,0.040,0.032,0.115,,*00
1684310324974279840,7265,1684310324973868131,gps,$KSXT,20230517080641.70,114.20852900,22.68993058,57.6338,294.99,5.90,36.39,0.031,,3,3,26,24,6.515,7.256,0.252,0.018,0.025,0.202,,*0E
1684310325027263040,7266,1684310325026869297,gps,$KSXT,20230517080641.75,114.20852900,22.68993058,57.6320,294.71,5.67,137.81,0.042,,3,3,26,23,6.514,7.256,0.251,0.028,-0.031,0.161,,*13
1684310325074408576,7267,1684310325074069976,gps,$KSXT,20230517080641.80,114.20852905,22.68993053,57.6339,295.08,5.98,129.49,0.166,,3,3,26,23,6.520,7.250,0.253,0.128,-0.105,0.264,,*1E
1684310325127176000,7268,1684310325126751184,gps,$KSXT,20230517080641.85,114.20852901,22.68993053,57.6301,295.40,6.01,151.45,0.179,,3,3,26,23,6.516,7.250,0.249,0.085,-0.157,0.171,,*1E
1684310325176944128,7269,1684310325176609754,gps,$KSXT,20230517080641.90,114.20852904,22.68993052,57.6350,295.51,6.34,132.66,0.140,,3,3,26,22,6.519,7.250,0.254,0.103,-0.095,0.064,,*15
1684310325227197536,7270,1684310325226829290,gps,$KSXT,20230517080641.95,114.20852900,22.68993052,57.6299,295.92,7.93,121.37,0.228,,3,3,26,22,6.515,7.250,0.249,0.195,-0.119,0.086,,*1E
1684310325283389152,7271,1684310325283097505,gps,$KSXT,20230517080642.00,114.20852906,22.68993050,57.6316,295.90,6.54,114.56,0.212,,3,3,26,22,6.521,7.247,0.250,0.193,-0.088,0.123,,*1B
1684310325328947040,7272,1684310325328471660,gps,$KSXT,20230517080642.05,114.20852906,22.68993052,57.6304,295.30,7.19,103.07,0.164,,3,3,26,23,6.521,7.249,0.249,0.160,-0.037,0.011,,*12
1684310325379253728,7273,1684310325378522872,gps,$KSXT,20230517080642.10,114.20852905,22.68993052,57.6318,295.94,8.90,74.14,0.129,,3,3,25,23,6.520,7.249,0.250,0.124,0.035,0.083,,*0C
1684310325429853472,7274,1684310325429534196,gps,$KSXT,20230517080642.15,114.20852905,22.68993051,57.6286,295.96,7.57,106.12,0.068,,3,3,25,22,6.520,7.248,0.247,0.066,-0.019,0.158,,*19
1684310325478693440,7275,1684310325478361368,gps,$KSXT,20230517080642.20,114.20852907,22.68993050,57.6329,296.23,6.07,279.96,0.030,,3,3,25,22,6.522,7.247,0.252,-0.029,0.005,0.087,,*17
1684310325528782208,7276,1684310325528442859,gps,$KSXT,20230517080642.25,114.20852903,22.68993047,57.6273,296.82,8.84,224.41,0.110,,3,3,24,22,6.518,7.244,0.246,-0.077,-0.078,0.072,,*39
1684310325578558528,7277,1684310325578260898,gps,$KSXT,20230517080642.30,114.20852903,22.68993046,57.6414,297.30,8.19,193.84,0.133,,3,3,24,22,6.518,7.243,0.260,-0.032,-0.129,0.178,,*3C
1684310325628072672,7278,1684310325627624511,gps,$KSXT,20230517080642.35,114.20852902,22.68993047,57.6327,297.69,9.05,226.87,0.123,,3,3,24,22,6.516,7.243,0.251,-0.090,-0.084,0.137,,*38
1684310325677684608,7279,1684310325677361488,gps,$KSXT,20230517080642.40,114.20852906,22.68993044,57.6417,298.05,7.86,154.44,0.120,,3,3,24,22,6.521,7.241,0.260,0.052,-0.108,0.139,,*1F
1684310325727614944,7280,1684310325727125644,gps,$KSXT,20230517080642.45,114.20852904,22.68993049,57.6317,297.59,8.82,79.93,0.055,,3,3,24,22,6.519,7.245,0.250,0.054,0.010,-0.065,,*22
1684310325777404736,7281,1684310325777109146,gps,$KSXT,20230517080642.50,114.20852909,22.68993048,57.6397,298.02,7.23,65.57,0.217,,3,3,24,22,6.524,7.244,0.258,0.197,0.090,0.096,,*06
1684310325824772832,7282,1684310325824436187,gps,$KSXT,20230517080642.55,114.20852906,22.68993055,57.6367,297.63,7.67,9.46,0.318,,3,3,24,22,6.520,7.252,0.255,0.052,0.314,-0.090,,*11
1684310325874986208,7283,1684310325874576091,gps,$KSXT,20230517080642.60,114.20852901,22.68993063,57.6337,297.16,6.37,9.55,0.486,,3,3,24,22,6.516,7.261,0.252,0.081,0.479,-0.106,,*1A
1684310325927986944,7284,1684310325927612066,gps,$KSXT,20230517080642.65,114.20852901,22.68993072,57.6253,296.12,7.11,356.18,0.763,,3,3,24,22,6.516,7.272,0.244,-0.051,0.761,-0.210,,*3F
1684310325975140256,7285,1684310325974743604,gps,$KSXT,20230517080642.70,114.20852900,22.68993083,57.6192,295.25,5.37,346.88,1.020,,3,3,24,22,6.514,7.284,0.238,-0.231,0.993,-0.459,,*3E
1684310326027845728,7286,1684310326027517080,gps,$KSXT,20230517080642.75,114.20852895,22.68993092,57.6161,294.65,4.97,349.88,1.037,,3,3,24,22,6.510,7.293,0.235,-0.182,1.021,-0.360,,*35
1684310326077884288,7287,1684310326077560901,gps,$KSXT,20230517080642.80,114.20852892,22.68993097,57.6126,295.96,3.57,358.50,0.878,,3,3,23,22,6.506,7.299,0.231,-0.023,0.878,-0.173,,*3E
1684310326128202016,7288,1684310326127794742,gps,$KSXT,20230517080642.85,114.20852888,22.68993101,57.6177,295.75,0.77,19.47,0.626,,3,3,22,21,6.502,7.303,0.236,0.209,0.591,0.381,,*0F
1684310326175721856,7289,1684310326175298929,gps,$KSXT,20230517080642.90,114.20852891,22.68993102,57.6156,296.46,0.66,45.70,0.449,,3,3,22,21,6.505,7.305,0.234,0.321,0.314,0.636,,*0C
1684310326228156064,7290,1684310326227793216,gps,$KSXT,20230517080642.95,114.20852883,22.68993106,57.6055,296.72,0.28,69.15,0.371,,3,3,22,21,6.498,7.309,0.224,0.346,0.132,0.559,,*05
1684310326281871712,7291,1684310326281467437,gps,$KSXT,20230517080643.00,114.20852885,22.68993110,57.6068,297.57,3.54,85.49,0.354,,3,3,21,21,6.499,7.313,0.225,0.353,0.028,0.530,,*0C
1684310326329119872,7292,1684310326328733682,gps,$KSXT,20230517080643.05,114.20852883,22.68993116,57.6085,297.30,-1.38,75.31,0.446,,3,3,21,21,6.497,7.320,0.227,0.431,0.113,0.513,,*2D
1684310326378737600,7293,1684310326376336097,gps,$KSXT,20230517080643.10,114.20852882,22.68993125,57.6014,297.44,-0.13,55.24,0.553,,3,3,21,21,6.497,7.330,0.220,0.454,0.315,0.207,,*2B
1684310326431091392,7294,1684310326430662631,gps,$KSXT,20230517080643.15,114.20852862,22.68993159,57.6136,298.97,3.13,36.38,0.814,,3,3,20,20,6.476,7.368,0.232,0.483,0.655,0.787,,*04
1684310326481036192,7295,1684310326480722665,gps,$KSXT,20230517080643.20,114.20852890,22.68993152,57.6502,298.12,-0.50,40.13,1.378,,3,3,20,22,6.505,7.360,0.269,0.888,1.054,1.262,,*24
1684310326527961248,7296,1684310326527567148,gps,$KSXT,20230517080643.25,114.20852887,22.68993175,57.6616,298.61,1.96,21.08,1.663,,3,3,20,21,6.501,7.386,0.280,0.598,1.552,1.185,,*09
1684310326578395680,7297,1684310326578057289,gps,$KSXT,20230517080643.30,114.20852882,22.68993197,57.6663,297.87,-0.07,19.83,1.914,,3,3,20,21,6.497,7.410,0.285,0.649,1.801,0.877,,*20
1684310326627725056,7298,1684310326627351522,gps,$KSXT,20230517080643.35,114.20852889,22.68993212,57.6579,298.04,2.80,16.00,1.873,,3,3,20,21,6.503,7.427,0.277,0.516,1.800,0.092,,*06
1684310326677633184,7299,1684310326677280187,gps,$KSXT,20230517080643.40,114.20852896,22.68993230,57.6574,298.15,3.60,13.49,1.757,,3,3,20,21,6.511,7.446,0.276,0.410,1.709,-0.784,,*20
1684310326728035872,7300,1684310326727671861,gps,$KSXT,20230517080643.45,114.20852904,22.68993246,57.6651,298.69,3.96,26.94,1.582,,3,3,20,20,6.518,7.464,0.284,0.717,1.410,-1.039,,*2E
1684310326777494720,7301,1684310326777162075,gps,$KSXT,20230517080643.50,114.20852922,22.68993259,57.6553,298.49,7.48,32.86,1.509,,3,3,20,20,6.537,7.478,0.274,0.819,1.267,-1.160,,*24
1684310326827978944,7302,1684310326827650547,gps,$KSXT,20230517080643.55,114.20852945,22.68993275,57.6783,297.20,3.49,43.15,1.687,,3,3,20,18,6.561,7.497,0.297,1.154,1.231,-0.117,,*2A
1684310326877926880,7303,1684310326877474308,gps,$KSXT,20230517080643.60,114.20852956,22.68993294,57.6801,296.46,1.68,39.58,1.717,,3,3,20,18,6.573,7.517,0.299,1.094,1.324,0.576,,*0A
1684310326928113920,7304,1684310326927791118,gps,$KSXT,20230517080643.65,114.20852961,22.68993313,57.6811,296.02,-0.71,37.38,1.653,,3,3,20,18,6.577,7.538,0.300,1.004,1.314,0.858,,*2A
1684310326977664160,7305,1684310326977374792,gps,$KSXT,20230517080643.70,114.20852969,22.68993330,57.6819,295.73,0.27,35.38,1.601,,3,3,20,18,6.586,7.557,0.301,0.927,1.305,0.829,,*08
1684310327028366016,7306,1684310327027957916,gps,$KSXT,20230517080643.75,114.20852951,22.68993359,57.6700,295.92,2.75,17.23,1.561,,3,3,20,20,6.567,7.589,0.289,0.462,1.491,0.531,,*0F
1684310327078386912,7307,1684310327077648162,gps,$KSXT,20230517080643.80,114.20852963,22.68993376,57.6732,296.29,4.74,4.00,1.625,,3,3,20,20,6.579,7.608,0.292,0.113,1.621,0.117,,*39
1684310327128474912,7308,1684310327128021478,gps,$KSXT,20230517080643.85,114.20852962,22.68993394,57.6599,294.87,2.43,354.53,1.715,,3,3,20,20,6.579,7.628,0.279,-0.163,1.707,-0.348,,*39
1684310327178449568,7309,1684310327178040742,gps,$KSXT,20230517080643.90,114.20852963,22.68993411,57.6514,294.65,4.92,342.48,1.742,,3,3,20,20,6.579,7.647,0.270,-0.524,1.661,-0.783,,*3F
1684310327224796992,7310,1684310327224522829,gps,$KSXT,20230517080643.95,114.20852964,22.68993423,57.6487,293.69,4.33,344.63,1.512,,3,3,20,20,6.581,7.660,0.267,-0.401,1.458,-0.885,,*3C
1684310327281018464,7311,1684310327280715942,gps,$KSXT,20230517080644.00,114.20852961,22.68993432,57.6470,293.81,3.19,331.31,1.294,,3,3,20,20,6.577,7.670,0.266,-0.621,1.135,-0.946,,*36
1684310327329609376,7312,1684310327329282522,gps,$KSXT,20230517080644.05,114.20852961,22.68993438,57.6459,294.34,3.17,334.79,0.652,,3,3,20,20,6.577,7.677,0.265,-0.278,0.590,-0.460,,*3C
1684310327380007648,7313,1684310327379244327,gps,$KSXT,20230517080644.10,114.20852965,22.68993442,57.6501,294.86,2.90,28.47,0.214,,3,3,20,20,6.581,7.681,0.269,0.102,0.188,0.014,,*07
1684310327430974656,7314,1684310327430531501,gps,$KSXT,20230517080644.15,114.20852968,22.68993442,57.6575,296.35,1.15,125.14,0.303,,3,3,20,20,6.585,7.681,0.276,0.247,-0.174,0.555,,*13
1684310327477104640,7315,1684310327476762294,gps,$KSXT,20230517080644.20,114.20852973,22.68993444,57.6710,297.19,0.71,125.51,0.600,,3,3,23,20,6.589,7.683,0.290,0.488,-0.349,1.125,,*1D
1684310327528502944,7316,1684310327528104543,gps,$KSXT,20230517080644.25,114.20852978,22.68993444,57.6778,298.28,0.76,126.19,0.506,,3,3,23,20,6.595,7.684,0.297,0.408,-0.299,0.972,,*1F
1684310327576059520,7317,1684310327575622081,gps,$KSXT,20230517080644.30,114.20852980,22.68993444,57.6651,299.59,0.39,126.69,0.631,,3,3,23,20,6.597,7.684,0.284,0.506,-0.377,0.697,,*10
1684310327628824000,7318,1684310327628389835,gps,$KSXT,20230517080644.35,114.20852978,22.68993446,57.6655,301.23,-0.85,119.52,0.686,,3,3,23,20,6.595,7.686,0.284,0.597,-0.338,0.504,,*31
1684310327678120480,7319,1684310327677616596,gps,$KSXT,20230517080644.40,114.20852984,22.68993449,57.6686,301.49,-0.42,108.36,0.824,,3,3,23,20,6.601,7.689,0.287,0.782,-0.259,0.691,,*3F
1684310327727900352,7320,1684310327727464675,gps,$KSXT,20230517080644.45,114.20852983,22.68993448,57.6569,303.74,4.06,110.00,0.711,,3,3,23,20,6.600,7.687,0.276,0.668,-0.243,0.174,,*1D
1684310327778820480,7321,1684310327778356313,gps,$KSXT,20230517080644.50,114.20852984,22.68993445,57.6370,302.88,-0.49,110.30,0.631,,3,3,22,19,6.602,7.685,0.256,0.592,-0.219,-0.175,,*11
1684310327828520576,7322,1684310327828019857,gps,$KSXT,20230517080644.55,114.20852993,22.68993442,57.6386,303.24,-0.04,107.27,0.390,,3,3,22,19,6.611,7.681,0.257,0.373,-0.116,-0.302,,*1C
1684310327876137184,7323,1684310327875301361,gps,$KSXT,20230517080644.60,114.20852997,22.68993435,57.6468,303.78,-0.19,120.07,0.456,,3,3,22,19,6.614,7.674,0.265,0.395,-0.229,-0.061,,*19
1684310327928710528,7324,1684310327928390026,gps,$KSXT,20230517080644.65,114.20853007,22.68993431,57.6663,304.31,0.38,135.48,0.466,,3,3,22,19,6.625,7.669,0.285,0.327,-0.333,0.088,,*11
1684310327980270464,7325,1684310327978170394,gps,$KSXT,20230517080644.70,114.20853004,22.68993426,57.6812,305.27,-1.34,145.46,0.617,,3,3,22,20,6.621,7.664,0.300,0.350,-0.509,0.303,,*33
1684310328025566272,7326,1684310328025188684,gps,$KSXT,20230517080644.75,114.20853010,22.68993416,57.6846,306.17,-2.28,146.90,0.726,,3,3,22,20,6.628,7.653,0.303,0.397,-0.608,0.509,,*3F
1684310328078109696,7327,1684310328077720403,gps,$KSXT,20230517080644.80,114.20853015,22.68993409,57.6942,307.21,0.94,154.78,0.779,,3,3,22,20,6.633,7.644,0.313,0.332,-0.705,0.741,,*18
1684310328128051776,7328,1684310328127669811,gps,$KSXT,20230517080644.85,114.20853015,22.68993400,57.6790,307.67,1.40,154.71,0.867,,3,3,22,20,6.633,7.634,0.298,0.371,-0.784,0.419,,*13
1684310328175203584,7329,1684310328174822568,gps,$KSXT,20230517080644.90,114.20853019,22.68993390,57.6809,308.18,2.67,166.02,0.838,,3,3,22,20,6.637,7.623,0.300,0.202,-0.814,0.187,,*17
1684310328227754048,7330,1684310328227405786,gps,$KSXT,20230517080644.95,114.20853014,22.68993384,57.6812,308.85,3.49,169.52,0.770,,3,3,22,20,6.632,7.616,0.300,0.140,-0.758,0.245,,*1C
1684310328283770784,7331,1684310328283433675,gps,$KSXT,20230517080645.00,114.20853013,22.68993378,57.6855,308.71,2.45,187.22,0.589,,3,3,22,20,6.631,7.610,0.304,-0.074,-0.584,0.180,,*30
1684310328325911520,7332,1684310328325551986,gps,$KSXT,20230517080645.05,114.20853007,22.68993373,57.6899,309.52,2.48,217.97,0.597,,3,3,22,20,6.625,7.604,0.309,-0.367,-0.470,0.071,,*34
1684310328379615808,7333,1684310328379176378,gps,$KSXT,20230517080645.10,114.20853008,22.68993369,57.6914,309.29,3.42,221.03,0.474,,3,3,22,20,6.626,7.600,0.310,-0.311,-0.358,0.062,,*32
1684310328429738368,7334,1684310328429250955,gps,$KSXT,20230517080645.15,114.20853003,22.68993369,57.6754,309.30,4.27,232.25,0.302,,3,3,22,20,6.621,7.601,0.294,-0.239,-0.185,0.024,,*3A
1684310328484148352,7335,1684310328480735778,gps,$KSXT,20230517080645.20,114.20852992,22.68993375,57.6104,309.03,7.99,222.91,0.138,,3,3,22,23,6.609,7.607,0.229,-0.094,-0.101,-0.319,,*11
1684310328527977792,7336,1684310328527637720,gps,$KSXT,20230517080645.25,114.20852990,22.68993374,57.6165,309.63,6.76,285.17,0.117,,3,3,22,23,6.607,7.606,0.235,-0.113,0.031,-0.030,,*33
1684310328578054560,7337,1684310328577700138,gps,$KSXT,20230517080645.30,114.20852993,22.68993373,57.6221,309.55,6.32,67.61,0.087,,3,3,22,23,6.610,7.605,0.241,0.080,0.033,0.048,,*02
1684310328625170976,7338,1684310328624800920,gps,$KSXT,20230517080645.35,114.20852992,22.68993372,57.6239,309.20,4.27,69.88,0.134,,3,3,22,23,6.609,7.604,0.243,0.126,0.046,0.309,,*08
1684310328677526560,7339,1684310328677177906,gps,$KSXT,20230517080645.40,114.20852995,22.68993371,57.6232,309.50,5.99,49.00,0.095,,3,3,22,23,6.612,7.602,0.242,0.072,0.062,0.181,,*07
1684310328727675456,7340,1684310328727352380,gps,$KSXT,20230517080645.45,114.20852992,22.68993373,57.6233,309.14,5.74,16.27,0.121,,3,3,22,23,6.609,7.605,0.242,0.034,0.116,0.218,,*0A
1684310328778844672,7341,1684310328777441024,gps,$KSXT,20230517080645.50,114.20852991,22.68993373,57.6362,309.74,4.41,321.42,0.175,,3,3,22,22,6.608,7.605,0.255,-0.109,0.137,0.208,,*1A
1684310328827033216,7342,1684310328826679706,gps,$KSXT,20230517080645.55,114.20852989,22.68993373,57.6237,309.90,6.76,309.89,0.159,,3,3,22,22,6.606,7.605,0.242,-0.122,0.102,0.077,,*15
1684310328877361728,7343,1684310328877088546,gps,$KSXT,20230517080645.60,114.20852990,22.68993373,57.6285,309.62,6.55,315.93,0.142,,3,3,22,22,6.608,7.605,0.247,-0.099,0.102,0.046,,*1A
1684310328927532000,7344,1684310328927227497,gps,$KSXT,20230517080645.65,114.20852990,22.68993373,57.6241,309.41,7.96,270.00,0.093,,3,3,22,22,6.607,7.604,0.243,-0.093,0.000,-0.179,,*3E
1684310328977868928,7345,1684310328977546691,gps,$KSXT,20230517080645.70,114.20852984,22.68993371,57.6233,310.09,7.53,253.41,0.188,,3,3,22,21,6.601,7.603,0.242,-0.181,-0.054,-0.056,,*1B
1684310329027879456,7346,1684310329027572631,gps,$KSXT,20230517080645.75,114.20852984,22.68993370,57.6267,309.96,5.01,191.41,0.125,,3,3,22,21,6.601,7.601,0.245,-0.025,-0.123,0.005,,*3F
1684310329077726496,7347,1684310329077431201,gps,$KSXT,20230517080645.80,114.20852986,22.68993370,57.6202,309.66,7.07,172.41,0.111,,3,3,22,21,6.603,7.601,0.239,0.015,-0.110,-0.027,,*3F
1684310329127317184,7348,1684310329126967191,gps,$KSXT,20230517080645.85,114.20852983,22.68993371,57.6232,309.99,7.48,109.29,0.088,,3,3,22,21,6.600,7.602,0.242,0.084,-0.029,0.135,,*15
1684310329176969632,7349,1684310329176521301,gps,$KSXT,20230517080645.90,114.20852990,22.68993371,57.6366,309.98,3.37,61.29,0.077,,3,3,22,21,6.607,7.602,0.255,0.068,0.037,0.160,,*00
1684310329226929248,7350,1684310329226537227,gps,$KSXT,20230517080645.95,114.20852991,22.68993371,57.6373,309.66,4.05,69.61,0.170,,3,3,22,21,6.609,7.603,0.256,0.160,0.059,0.222,,*0D
1684310329282741440,7351,1684310329282482624,gps,$KSXT,20230517080646.00,114.20852991,22.68993371,57.6169,309.93,4.57,76.57,0.214,,3,3,22,21,6.609,7.602,0.236,0.208,0.050,-0.160,,*27
1684310329328669504,7352,1684310329328283309,gps,$KSXT,20230517080646.05,114.20852990,22.68993371,57.6219,309.94,5.85,64.20,0.128,,3,3,22,22,6.608,7.603,0.241,0.116,0.056,-0.139,,*24
1684310329378665888,7353,1684310329378301858,gps,$KSXT,20230517080646.10,114.20852989,22.68993375,57.6264,310.22,5.58,33.69,0.161,,3,3,22,21,6.606,7.606,0.245,0.089,0.134,0.071,,*0F
1684310329429917984,7354,1684310329429535627,gps,$KSXT,20230517080646.15,114.20852993,22.68993376,57.6343,310.40,5.31,7.81,0.150,,3,3,22,21,6.610,7.608,0.253,0.020,0.148,0.112,,*3C
1684310329477910976,7355,1684310329477483034,gps,$KSXT,20230517080646.20,114.20852992,22.68993379,57.6255,310.25,4.95,2.87,0.287,,3,3,22,22,6.610,7.612,0.244,0.014,0.286,-0.050,,*16
1684310329524752576,7356,1684310329524294376,gps,$KSXT,20230517080646.25,114.20852994,22.68993385,57.6326,309.23,2.55,19.85,0.376,,3,3,26,21,6.612,7.618,0.251,0.128,0.354,0.108,,*0A
1684310329577862784,7357,1684310329577124595,gps,$KSXT,20230517080646.30,114.20852994,22.68993393,57.6258,309.67,2.23,6.51,0.500,,3,3,26,21,6.612,7.627,0.245,0.057,0.497,0.055,,*31
1684310329628377632,7358,1684310329627805233,gps,$KSXT,20230517080646.35,114.20852995,22.68993401,57.6258,309.20,1.51,358.16,0.666,,3,3,26,21,6.612,7.636,0.245,-0.021,0.665,-0.180,,*33
1684310329677240416,7359,1684310329676858901,gps,$KSXT,20230517080646.40,114.20852989,22.68993412,57.6334,308.59,-0.11,359.53,0.791,,3,3,26,21,6.606,7.648,0.252,-0.007,0.791,0.358,,*35
1684310329726792480,7360,1684310329726445198,gps,$KSXT,20230517080646.45,114.20852989,22.68993422,57.6244,308.73,0.32,355.95,0.957,,3,3,26,21,6.607,7.659,0.243,-0.068,0.955,0.230,,*12
1684310329777101536,7361,1684310329776671409,gps,$KSXT,20230517080646.50,114.20852988,22.68993437,57.6315,307.72,-2.62,357.21,1.022,,3,3,26,21,6.605,7.675,0.250,-0.050,1.021,0.210,,*39
1684310329828285088,7362,1684310329827805995,gps,$KSXT,20230517080646.55,114.20852985,22.68993448,57.6113,307.23,-1.63,358.40,1.034,,3,3,25,21,6.602,7.687,0.230,-0.029,1.033,-0.183,,*12
1684310329878190816,7363,1684310329877783536,gps,$KSXT,20230517080646.60,114.20852984,22.68993459,57.5958,307.92,1.62,348.32,1.227,,3,3,25,21,6.601,7.700,0.215,-0.248,1.201,-0.307,,*31
1684310329925086368,7364,1684310329924721717,gps,$KSXT,20230517080646.65,114.20852980,22.68993474,57.5973,307.81,2.31,341.21,1.409,,3,3,25,21,6.597,7.717,0.216,-0.454,1.334,-0.137,,*34
1684310329978151936,7365,1684310329977821588,gps,$KSXT,20230517080646.70,114.20852978,22.68993487,57.5837,307.27,4.34,328.02,1.630,,3,3,25,21,6.595,7.730,0.202,-0.863,1.383,-0.743,,*30
1684310330025145728,7366,1684310330024819135,gps,$KSXT,20230517080646.75,114.20852973,22.68993499,57.5844,307.23,4.73,326.77,1.481,,3,3,25,21,6.590,7.744,0.203,-0.812,1.239,-0.475,,*31
1684310330078217472,7367,1684310330077866077,gps,$KSXT,20230517080646.80,114.20852967,22.68993510,57.5800,307.33,5.61,328.50,1.204,,3,3,25,21,6.584,7.756,0.199,-0.629,1.027,-0.454,,*33
1684310330128339968,7368,1684310330128054857,gps,$KSXT,20230517080646.85,114.20852958,22.68993524,57.5843,306.98,6.57,333.23,1.031,,3,3,25,22,6.575,7.772,0.203,-0.464,0.920,-0.096,,*33
1684310330177822720,7369,1684310330177500486,gps,$KSXT,20230517080646.90,114.20852957,22.68993536,57.5909,306.53,4.65,346.26,0.813,,3,3,25,22,6.573,7.785,0.210,-0.193,0.790,-0.031,,*37
1684310330227355840,7370,1684310330227087020,gps,$KSXT,20230517080646.95,114.20852945,22.68993550,57.5733,306.07,4.62,5.86,0.793,,3,3,25,21,6.561,7.801,0.192,0.081,0.789,-0.214,,*11
1684310330283729280,7371,1684310330283456087,gps,$KSXT,20230517080647.00,114.20852938,22.68993568,57.5979,305.80,-2.20,9.74,0.902,,3,3,24,20,6.554,7.820,0.217,0.153,0.889,-0.225,,*33
1684310330328958464,7372,1684310330328607797,gps,$KSXT,20230517080647.05,114.20852942,22.68993587,57.5901,306.19,-3.81,21.56,1.209,,3,3,24,20,6.558,7.842,0.209,0.444,1.125,-0.245,,*0B
1684310330380961312,7373,1684310330379469871,gps,$KSXT,20230517080647.10,114.20852955,22.68993606,57.6123,305.60,-5.82,33.84,1.597,,3,3,24,21,6.571,7.862,0.231,0.889,1.326,0.043,,*2A
1684310330430906112,7374,1684310330430420637,gps,$KSXT,20230517080647.15,114.20852972,22.68993630,57.6243,306.17,-3.01,32.49,2.030,,3,3,24,21,6.589,7.889,0.243,1.090,1.712,0.295,,*23
1684310330481410368,7375,1684310330481028556,gps,$KSXT,20230517080647.20,114.20852975,22.68993653,57.5733,305.23,-3.48,29.26,2.455,,3,3,24,22,6.592,7.914,0.192,1.200,2.141,-0.057,,*01
1684310330528443424,7376,1684310330528002023,gps,$KSXT,20230517080647.25,114.20852991,22.68993686,57.5579,303.90,-4.26,25.73,2.816,,3,3,24,22,6.608,7.951,0.177,1.223,2.537,-0.350,,*06
1684310330579596352,7377,1684310330578521490,gps,$KSXT,20230517080647.30,114.20853004,22.68993718,57.5681,303.59,-0.32,24.78,3.019,,3,3,23,21,6.621,7.987,0.187,1.265,2.742,-0.197,,*0C
1684310330627796768,7378,1684310330627390623,gps,$KSXT,20230517080647.35,114.20853014,22.68993748,57.5647,304.19,2.42,23.90,3.011,,3,3,23,21,6.632,8.020,0.183,1.220,2.753,0.187,,*05
1684310330677563616,7379,1684310330677127122,gps,$KSXT,20230517080647.40,114.20853036,22.68993771,57.5588,303.30,2.29,32.00,2.842,,3,3,23,20,6.654,8.045,0.178,1.506,2.410,0.563,,*05
1684310330727179648,7380,1684310330726740837,gps,$KSXT,20230517080647.45,114.20853054,22.68993794,57.5722,302.09,0.56,31.99,2.601,,3,3,23,19,6.673,8.071,0.191,1.378,2.206,0.905,,*0B
1684310330777214432,7381,1684310330776783943,gps,$KSXT,20230517080647.50,114.20853066,22.68993819,57.5712,301.67,-1.45,27.54,2.328,,3,3,23,19,6.686,8.098,0.190,1.076,2.065,0.898,,*29
1684310330827130208,7382,1684310330826819181,gps,$KSXT,20230517080647.55,114.20853066,22.68993844,57.5661,302.54,-0.83,16.41,2.018,,3,3,23,19,6.686,8.126,0.185,0.570,1.936,0.322,,*2B
1684310330877321088,7383,1684310330876951217,gps,$KSXT,20230517080647.60,114.20853067,22.68993866,57.5442,302.53,-0.91,8.28,1.898,,3,3,23,19,6.686,8.150,0.163,0.273,1.879,-0.741,,*33
1684310330927595616,7384,1684310330927184820,gps,$KSXT,20230517080647.65,114.20853072,22.68993891,57.5421,302.65,-1.14,5.19,1.905,,3,3,23,19,6.692,8.178,0.161,0.172,1.898,-1.295,,*31
1684310330977728512,7385,1684310330977319478,gps,$KSXT,20230517080647.70,114.20853092,22.68993920,57.5604,300.91,-3.63,12.32,2.156,,3,3,23,19,6.712,8.210,0.179,0.460,2.106,-0.940,,*08
1684310331027617600,7386,1684310331027312278,gps,$KSXT,20230517080647.75,114.20853101,22.68993949,57.5830,300.26,-7.64,14.42,2.427,,3,3,23,19,6.721,8.243,0.202,0.604,2.350,-0.245,,*0B
1684310331077653792,7387,1684310331077326536,gps,$KSXT,20230517080647.80,114.20853115,22.68993976,57.5768,300.34,-3.85,16.61,2.482,,3,3,23,19,6.735,8.273,0.195,0.709,2.378,0.076,,*2C
1684310331127588544,7388,1684310331127201080,gps,$KSXT,20230517080647.85,114.20853116,22.68994001,57.5635,301.48,-2.00,16.25,2.267,,3,3,23,19,6.737,8.300,0.182,0.635,2.177,0.115,,*20
1684310331178143456,7389,1684310331176961421,gps,$KSXT,20230517080647.90,114.20853117,22.68994025,57.5477,303.16,0.04,15.28,1.930,,3,3,23,19,6.738,8.326,0.166,0.509,1.862,0.152,,*01
1684310331226941568,7390,1684310331226602554,gps,$KSXT,20230517080647.95,114.20853125,22.68994047,57.5382,303.66,-0.20,13.84,1.721,,3,3,23,19,6.746,8.351,0.157,0.412,1.671,0.366,,*27
1684310331283538944,7391,1684310331283185243,gps,$KSXT,20230517080648.00,114.20853126,22.68994069,57.5477,304.73,0.34,5.91,1.655,,3,3,23,19,6.747,8.376,0.166,0.170,1.647,0.496,,*36
1684310331328750496,7392,1684310331328334331,gps,$KSXT,20230517080648.05,114.20853131,22.68994091,57.5329,306.07,5.53,4.40,1.501,,3,3,22,19,6.752,8.399,0.152,0.115,1.497,0.200,,*32
1684310331379065088,7393,1684310331378495454,gps,$KSXT,20230517080648.10,114.20853136,22.68994110,57.5468,307.83,6.30,10.60,1.457,,3,3,22,19,6.757,8.421,0.166,0.268,1.432,0.115,,*02
1684310331430175808,7394,1684310331429666757,gps,$KSXT,20230517080648.15,114.20853141,22.68994136,57.5412,308.11,10.42,13.78,1.625,,3,3,22,19,6.762,8.449,0.160,0.387,1.579,0.049,,*3D
1684310331478055712,7395,1684310331477705001,gps,$KSXT,20230517080648.20,114.20853149,22.68994159,57.5313,309.23,11.00,13.86,1.809,,3,3,22,19,6.771,8.475,0.150,0.433,1.756,-0.075,,*11
1684310331527799648,7396,1684310331527406930,gps,$KSXT,20230517080648.25,114.20853162,22.68994181,57.5375,309.05,10.23,17.56,2.022,,3,3,22,20,6.784,8.500,0.156,0.610,1.927,-0.284,,*15
1684310331578043392,7397,1684310331577718257,gps,$KSXT,20230517080648.30,114.20853165,22.68994208,57.5544,309.35,6.37,15.45,2.192,,3,3,22,20,6.787,8.530,0.173,0.584,2.112,-0.130,,*23
1684310331627318656,7398,1684310331626984357,gps,$KSXT,20230517080648.35,114.20853170,22.68994236,57.5722,309.75,3.56,11.59,2.293,,3,3,22,20,6.792,8.560,0.191,0.461,2.247,0.446,,*0D
1684310331676743552,7399,1684310331676294803,gps,$KSXT,20230517080648.40,114.20853167,22.68994263,57.5788,310.95,2.65,5.61,2.288,,3,3,22,20,6.789,8.590,0.198,0.224,2.277,0.657,,*30
1684310331727505088,7400,1684310331727091312,gps,$KSXT,20230517080648.45,114.20853175,22.68994285,57.5605,311.18,5.72,7.90,2.157,,3,3,22,20,6.797,8.614,0.179,0.296,2.136,0.256,,*37
1684310331777443552,7401,1684310331777038097,gps,$KSXT,20230517080648.50,114.20853181,22.68994309,57.5561,311.23,5.54,8.87,2.084,,3,3,22,20,6.803,8.641,0.175,0.321,2.059,0.077,,*3C
1684310331827621600,7402,1684310331827213287,gps,$KSXT,20230517080648.55,114.20853189,22.68994335,57.5566,311.22,4.61,12.30,2.106,,3,3,22,20,6.812,8.670,0.175,0.449,2.058,-0.102,,*27
1684310331877839168,7403,1684310331877425193,gps,$KSXT,20230517080648.60,114.20853203,22.68994366,57.5515,310.64,4.20,15.96,2.355,,3,3,22,20,6.826,8.704,0.170,0.648,2.264,-0.010,,*27
1684310331927524128,7404,1684310331927163124,gps,$KSXT,20230517080648.65,114.20853224,22.68994397,57.5524,309.66,1.96,24.96,2.584,,3,3,22,20,6.847,8.739,0.171,1.090,2.342,0.291,,*08
1684310331974897536,7405,1684310331974497795,gps,$KSXT,20230517080648.70,114.20853243,22.68994428,57.5505,309.42,6.07,28.85,2.853,,3,3,22,20,6.868,8.773,0.169,1.377,2.499,0.328,,*0F
1684310332024906176,7406,1684310332024616479,gps,$KSXT,20230517080648.75,114.20853260,22.68994460,57.5531,309.42,7.52,28.64,3.016,,3,3,22,20,6.885,8.808,0.172,1.445,2.647,0.035,,*04
1684310332077934048,7407,1684310332077458143,gps,$KSXT,20230517080648.80,114.20853279,22.68994491,57.5449,308.93,8.44,29.63,3.178,,3,3,22,20,6.904,8.842,0.164,1.571,2.762,0.066,,*0B
1684310332127855712,7408,1684310332127525568,gps,$KSXT,20230517080648.85,114.20853305,22.68994520,57.5517,308.53,7.62,35.58,3.282,,3,3,22,20,6.931,8.875,0.170,1.910,2.670,-0.068,,*2C
1684310332177636384,7409,1684310332177311897,gps,$KSXT,20230517080648.90,114.20853332,22.68994554,57.5704,306.60,4.03,38.58,3.462,,3,3,22,20,6.959,8.912,0.189,2.159,2.706,0.338,,*05
1684310332224938304,7410,1684310332224577903,gps,$KSXT,20230517080648.95,114.20853349,22.68994587,57.5774,306.02,2.60,36.79,3.408,,3,3,22,20,6.976,8.950,0.196,2.041,2.729,0.232,,*08
1684310332283244064,7411,1684310332282904148,gps,$KSXT,20230517080649.00,114.20853366,22.68994617,57.5737,306.04,3.20,39.06,3.189,,3,3,22,20,6.994,8.982,0.192,2.010,2.476,0.086,,*0A
1684310332329828800,7412,1684310332328991413,gps,$KSXT,20230517080649.05,114.20853383,22.68994649,57.5769,305.92,2.60,35.05,2.968,,3,3,22,20,7.011,9.018,0.196,1.705,2.430,-0.069,,*20
1684310332378883520,7413,1684310332378577470,gps,$KSXT,20230517080649.10,114.20853393,22.68994687,57.5630,305.87,2.39,25.03,2.807,,3,3,22,20,7.021,9.060,0.182,1.188,2.543,-0.286,,*21
1684310332429289408,7414,1684310332429013729,gps,$KSXT,20230517080649.15,114.20853415,22.68994719,57.5506,305.24,-0.43,21.63,2.707,,3,3,22,20,7.043,9.095,0.169,0.998,2.516,-0.287,,*09
1684310332481066368,7415,1684310332480433702,gps,$KSXT,20230517080649.20,114.20853430,22.68994744,57.5738,305.99,-0.70,17.57,2.616,,3,3,22,21,7.059,9.123,0.193,0.790,2.494,-0.658,,*02
1684310332527796992,7416,1684310332527391195,gps,$KSXT,20230517080649.25,114.20853454,22.68994785,57.5681,305.84,-0.50,18.73,2.605,,3,3,22,22,7.084,9.168,0.187,0.836,2.467,-0.285,,*0C
1684310332578415424,7417,1684310332578052759,gps,$KSXT,20230517080649.30,114.20853467,22.68994818,57.5784,306.24,-3.49,15.40,2.736,,3,3,22,22,7.097,9.205,0.197,0.726,2.638,0.050,,*23
1684310332624916480,7418,1684310332624469041,gps,$KSXT,20230517080649.35,114.20853476,22.68994853,57.5894,306.74,-6.05,13.25,2.892,,3,3,22,22,7.106,9.243,0.208,0.663,2.815,0.312,,*21
1684310332677360160,7419,1684310332677004575,gps,$KSXT,20230517080649.40,114.20853482,22.68994882,57.5900,308.97,-6.07,12.99,2.732,,3,3,22,21,7.113,9.276,0.209,0.614,2.662,0.044,,*24
1684310332727415488,7420,1684310332726994276,gps,$KSXT,20230517080649.45,114.20853493,22.68994908,57.6069,310.02,-9.00,17.34,2.468,,3,3,22,21,7.124,9.304,0.226,0.736,2.356,0.156,,*28
1684310332777343488,7421,1684310332776960849,gps,$KSXT,20230517080649.50,114.20853511,22.68994930,57.6090,310.50,-9.68,29.41,2.253,,3,3,22,21,7.143,9.329,0.228,1.106,1.962,0.298,,*29
1684310332824834464,7422,1684310332824343204,gps,$KSXT,20230517080649.55,114.20853520,22.68994955,57.5969,311.77,-3.68,33.42,2.078,,3,3,22,21,7.152,9.356,0.216,1.145,1.735,0.239,,*29
1684310332877423872,7423,1684310332877072095,gps,$KSXT,20230517080649.60,114.20853541,22.68994976,57.5905,311.60,1.42,49.31,2.115,,3,3,21,20,7.173,9.380,0.209,1.604,1.379,0.108,,*0A
1684310332927278176,7424,1684310332926942348,gps,$KSXT,20230517080649.65,114.20853555,22.68995001,57.5900,312.25,3.33,47.05,2.115,,3,3,21,20,7.188,9.407,0.209,1.548,1.441,0.143,,*0C
1684310332977339904,7425,1684310332977032661,gps,$KSXT,20230517080649.70,114.20853568,22.68995028,57.5915,313.42,1.72,38.66,2.125,,3,3,21,20,7.201,9.437,0.210,1.328,1.660,0.245,,*0D
1684310333027498240,7426,1684310333027181625,gps,$KSXT,20230517080649.75,114.20853594,22.68995053,57.6054,314.03,-0.50,38.91,2.323,,3,3,21,20,7.228,9.466,0.224,1.459,1.807,0.531,,*28
1684310333076750016,7427,1684310333076274156,gps,$KSXT,20230517080649.80,114.20853616,22.68995079,57.5976,314.26,-0.34,35.52,2.517,,3,3,21,20,7.250,9.494,0.216,1.462,2.048,0.281,,*28
1684310333127767488,7428,1684310333127454757,gps,$KSXT,20230517080649.85,114.20853627,22.68995111,57.5900,314.31,-3.25,29.23,2.669,,3,3,21,20,7.262,9.529,0.209,1.304,2.329,-0.125,,*0E
1684310333177335456,7429,1684310333177064895,gps,$KSXT,20230517080649.90,114.20853636,22.68995148,57.5635,313.84,0.61,19.53,2.986,,3,3,21,20,7.271,9.570,0.182,0.998,2.814,-1.121,,*22
1684310333224652640,7430,1684310333224260568,gps,$KSXT,20230517080649.95,114.20853654,22.68995180,57.5553,313.18,0.83,18.33,3.195,,3,3,21,20,7.290,9.606,0.174,1.005,3.033,-1.053,,*21
1684310333283488704,7431,1684310333283133029,gps,$KSXT,20230517080650.00,114.20853681,22.68995205,57.5487,312.32,1.49,24.69,3.246,,3,3,21,20,7.317,9.634,0.167,1.356,2.950,-0.347,,*2A
1684310333327409344,7432,1684310333326997041,gps,$KSXT,20230517080650.05,114.20853705,22.68995229,57.5502,312.86,4.54,32.97,3.142,,3,3,21,20,7.342,9.660,0.169,1.710,2.636,-0.135,,*26
1684310333379106560,7433,1684310333378697395,gps,$KSXT,20230517080650.10,114.20853734,22.68995267,57.5739,311.12,6.11,39.08,3.298,,3,3,21,20,7.372,9.702,0.193,2.079,2.560,0.612,,*03
1684310333426921376,7434,1684310333426382064,gps,$KSXT,20230517080650.15,114.20853765,22.68995301,57.6020,309.62,5.46,43.77,3.364,,3,3,21,20,7.403,9.740,0.221,2.327,2.429,1.465,,*0D
1684310333474595136,7435,1684310333474222421,gps,$KSXT,20230517080650.20,114.20853787,22.68995329,57.6059,309.83,4.95,47.52,3.217,,3,3,20,20,7.427,9.771,0.225,2.372,2.172,1.884,,*0C
1684310333526890272,7436,1684310333526586771,gps,$KSXT,20230517080650.25,114.20853811,22.68995352,57.6173,310.14,1.90,49.07,2.944,,3,3,20,20,7.451,9.796,0.236,2.224,1.929,1.780,,*0E
1684310333577389504,7437,1684310333577057361,gps,$KSXT,20230517080650.30,114.20853826,22.68995376,57.6087,311.50,4.93,43.22,2.600,,3,3,20,20,7.467,9.823,0.227,1.780,1.894,0.998,,*0A
1684310333624039712,7438,1684310333623639345,gps,$KSXT,20230517080650.35,114.20853849,22.68995402,57.6025,311.32,5.13,38.87,2.555,,3,3,20,20,7.490,9.852,0.221,1.603,1.989,0.087,,*0F
1684310333676435424,7439,1684310333676135063,gps,$KSXT,20230517080650.40,114.20853874,22.68995432,57.5971,311.17,4.60,36.37,2.654,,3,3,20,20,7.516,9.885,0.216,1.574,2.137,-0.642,,*20
1684310333726761504,7440,1684310333726396322,gps,$KSXT,20230517080650.45,114.20853903,22.68995463,57.5940,311.20,0.95,36.20,2.818,,3,3,20,20,7.545,9.919,0.213,1.664,2.274,-1.277,,*2A
1684310333776832640,7441,1684310333776431083,gps,$KSXT,20230517080650.50,114.20853927,22.68995496,57.5899,311.11,0.52,32.39,3.035,,3,3,20,20,7.570,9.955,0.209,1.626,2.563,-1.151,,*21
1684310333826656960,7442,1684310333826263189,gps,$KSXT,20230517080650.55,114.20853956,22.68995525,57.5816,311.50,2.56,34.82,3.144,,3,3,20,20,7.600,9.987,0.200,1.795,2.581,-0.842,,*23
1684310333877600608,7443,1684310333877196550,gps,$KSXT,20230517080650.60,114.20853980,22.68995555,57.5745,312.29,6.82,34.60,3.192,,3,3,20,20,7.624,10.022,0.193,1.812,2.627,-0.640,,*15
1684310333927580448,7444,1684310333927151203,gps,$KSXT,20230517080650.65,114.20853997,22.68995585,57.5648,312.62,8.80,34.98,3.030,,3,3,20,20,7.642,10.054,0.184,1.737,2.482,-0.554,,*1E
1684310333977732160,7445,1684310333977411746,gps,$KSXT,20230517080650.70,114.20854026,22.68995605,57.5563,313.46,11.58,39.90,2.826,,3,3,20,20,7.672,10.076,0.175,1.813,2.168,-0.090,,*26
1684310334027546112,7446,1684310334027139902,gps,$KSXT,20230517080650.75,114.20854049,22.68995631,57.5798,314.17,9.30,42.90,2.730,,3,3,20,20,7.695,10.105,0.199,1.858,2.000,0.715,,*32
1684310334074822112,7447,1684310334074167966,gps,$KSXT,20230517080650.80,114.20854072,22.68995658,57.6037,314.52,4.04,43.85,2.602,,3,3,20,20,7.719,10.135,0.222,1.802,1.876,0.773,,*30
1684310334124665120,7448,1684310334124273300,gps,$KSXT,20230517080650.85,114.20854091,22.68995679,57.6226,316.12,0.00,44.25,2.444,,3,3,20,20,7.739,10.158,0.241,1.705,1.751,0.949,,*3B
1684310334176748064,7449,1684310334176205158,gps,$KSXT,20230517080650.90,114.20854110,22.68995701,57.6181,316.98,0.87,40.92,2.273,,3,3,20,20,7.758,10.183,0.237,1.489,1.717,1.025,,*37
1684310334227271840,7450,1684310334226826190,gps,$KSXT,20230517080650.95,114.20854133,22.68995725,57.6107,316.49,1.40,39.80,2.268,,3,3,20,20,7.782,10.209,0.229,1.452,1.743,0.655,,*34
1684310334282719520,7451,1684310334282281875,gps,$KSXT,20230517080651.00,114.20854151,22.68995753,57.6031,315.96,2.78,32.04,2.393,,3,3,20,20,7.800,10.241,0.222,1.270,2.029,0.571,,*3A
1684310334328558240,7452,1684310334328113079,gps,$KSXT,20230517080651.05,114.20854183,22.68995777,57.6162,314.86,-0.72,34.12,2.601,,3,3,20,20,7.833,10.267,0.235,1.459,2.153,0.357,,*1A
1684310334378705184,7453,1684310334378280162,gps,$KSXT,20230517080651.10,114.20854208,22.68995804,57.6048,314.96,1.88,36.36,2.818,,3,3,20,20,7.859,10.297,0.224,1.670,2.269,-0.217,,*1E
1684310334428957088,7454,1684310334428486108,gps,$KSXT,20230517080651.15,114.20854232,22.68995837,57.6027,314.83,2.49,41.40,3.057,,3,3,20,20,7.883,10.334,0.221,2.022,2.293,-0.127,,*1F
1684310334480288128,7455,1684310334479846477,gps,$KSXT,20230517080651.20,114.20854280,22.68995839,57.5859,314.83,4.94,45.44,3.093,,3,3,20,23,7.932,10.336,0.205,2.204,2.170,-0.413,,*14
1684310334526963840,7456,1684310334526675224,gps,$KSXT,20230517080651.25,114.20854307,22.68995861,57.5680,314.01,6.68,50.16,3.058,,3,3,20,23,7.961,10.360,0.187,2.348,1.959,-0.921,,*1E
1684310334577657056,7457,1684310334577330350,gps,$KSXT,20230517080651.30,114.20854335,22.68995886,57.5761,313.41,6.33,51.33,2.912,,3,3,20,23,7.990,10.387,0.195,2.273,1.820,-0.910,,*11
1684310334627392352,7458,1684310334627066373,gps,$KSXT,20230517080651.35,114.20854364,22.68995910,57.5817,312.79,3.94,50.38,2.897,,3,3,20,23,8.019,10.414,0.200,2.231,1.848,-0.271,,*15
1684310334677281600,7459,1684310334676858663,gps,$KSXT,20230517080651.40,114.20854390,22.68995938,57.5746,311.91,5.01,46.81,2.929,,3,3,20,23,8.045,10.446,0.193,2.135,2.004,-0.079,,*1A
1684310334728009824,7460,1684310334727600812,gps,$KSXT,20230517080651.45,114.20854413,22.68995965,57.5772,311.52,4.14,42.33,2.810,,3,3,20,23,8.070,10.475,0.196,1.892,2.077,0.252,,*36
1684310334774167648,7461,1684310334773861885,gps,$KSXT,20230517080651.50,114.20854445,22.68995987,57.5883,310.90,0.41,46.68,2.816,,3,3,20,23,8.102,10.499,0.207,2.048,1.932,0.772,,*36
1684310334826703104,7462,1684310334826314926,gps,$KSXT,20230517080651.55,114.20854477,22.68996008,57.5870,310.76,0.59,49.72,2.825,,3,3,20,23,8.135,10.523,0.206,2.155,1.826,0.648,,*32
1684310334874849504,7463,1684310334874485731,gps,$KSXT,20230517080651.60,114.20854497,22.68996029,57.5873,311.34,2.35,48.04,2.619,,3,3,20,23,8.156,10.546,0.206,1.948,1.751,0.448,,*38
1684310334924978144,7464,1684310334924664974,gps,$KSXT,20230517080651.65,114.20854523,22.68996048,57.5963,310.93,0.55,49.85,2.480,,3,3,20,23,8.182,10.567,0.215,1.895,1.599,0.507,,*33
1684310334977259296,7465,1684310334976827621,gps,$KSXT,20230517080651.70,114.20854548,22.68996071,57.6001,310.36,-1.96,46.75,2.415,,3,3,20,23,8.208,10.593,0.219,1.759,1.655,0.331,,*17
1684310335024944704,7466,1684310335024482727,gps,$KSXT,20230517080651.75,114.20854568,22.68996097,57.5937,310.33,-0.48,40.35,2.335,,3,3,20,23,8.229,10.621,0.212,1.512,1.780,0.229,,*19
1684310335077704768,7467,1684310335077348709,gps,$KSXT,20230517080651.80,114.20854592,22.68996124,57.5875,310.57,0.64,38.21,2.360,,3,3,20,23,8.253,10.651,0.206,1.460,1.855,0.042,,*30
1684310335127865632,7468,1684310335127449750,gps,$KSXT,20230517080651.85,114.20854611,22.68996151,57.6021,311.19,0.39,35.89,2.347,,3,3,20,23,8.273,10.681,0.221,1.376,1.901,-0.198,,*1D
1684310335177703072,7469,1684310335177315950,gps,$KSXT,20230517080651.90,114.20854633,22.68996177,57.5915,311.78,2.52,37.62,2.465,,3,3,20,23,8.295,10.709,0.210,1.505,1.953,-0.635,,*16
1684310335227135808,7470,1684310335226690053,gps,$KSXT,20230517080651.95,114.20854660,22.68996200,57.5831,311.89,1.27,40.19,2.665,,3,3,20,23,8.323,10.735,0.202,1.720,2.035,-0.529,,*11
1684310335286790560,7471,1684310335286164283,gps,$KSXT,20230517080652.00,114.20854685,22.68996219,57.5732,312.32,1.95,43.20,2.764,,3,3,20,23,8.349,10.757,0.192,1.892,2.015,-0.479,,*10
1684310335328994048,7472,1684310335328543663,gps,$KSXT,20230517080652.05,114.20854703,22.68996244,57.5739,313.08,0.79,40.71,2.755,,3,3,20,23,8.368,10.784,0.193,1.797,2.088,-0.345,,*1D
1684310335378824384,7473,1684310335378399133,gps,$KSXT,20230517080652.10,114.20854726,22.68996270,57.5886,313.21,0.47,38.76,2.725,,3,3,20,23,8.391,10.812,0.207,1.706,2.125,0.139,,*39
1684310335429647776,7474,1684310335429255247,gps,$KSXT,20230517080652.15,114.20854748,22.68996298,57.6056,312.85,-2.33,37.22,2.647,,3,3,20,23,8.414,10.844,0.224,1.601,2.107,0.783,,*15
1684310335477820736,7475,1684310335477336406,gps,$KSXT,20230517080652.20,114.20854762,22.68996322,57.5969,313.63,-1.10,31.24,2.422,,3,3,24,23,8.428,10.870,0.216,1.256,2.071,0.301,,*12
1684310335528315616,7476,1684310335527302980,gps,$KSXT,20230517080652.25,114.20854778,22.68996346,57.5918,313.45,-1.20,29.66,2.277,,3,3,24,23,8.445,10.897,0.211,1.127,1.979,-0.012,,*38
1684310335577782848,7477,1684310335577359676,gps,$KSXT,20230517080652.30,114.20854794,22.68996368,57.5905,313.74,-1.44,27.36,2.194,,3,3,24,23,8.461,10.921,0.209,1.008,1.949,0.048,,*15
1684310335627372960,7478,1684310335626889705,gps,$KSXT,20230517080652.35,114.20854812,22.68996394,57.6017,314.48,-0.36,30.15,2.244,,3,3,24,23,8.479,10.950,0.220,1.127,1.940,0.398,,*11
1684310335676687200,7479,1684310335676321268,gps,$KSXT,20230517080652.40,114.20854831,22.68996421,57.5941,315.35,4.06,31.14,2.309,,3,3,24,23,8.499,10.980,0.213,1.194,1.976,0.087,,*38
1684310335726883040,7480,1684310335726541757,gps,$KSXT,20230517080652.45,114.20854854,22.68996447,57.5995,315.29,3.35,35.42,2.457,,3,3,24,23,8.523,11.009,0.218,1.424,2.003,0.465,,*3A
1684310335776692576,7481,1684310335776355266,gps,$KSXT,20230517080652.50,114.20854879,22.68996472,57.5984,314.76,4.13,40.83,2.661,,3,3,24,23,8.548,11.036,0.217,1.740,2.013,0.162,,*3B
1684310335827223808,7482,1684310335826660394,gps,$KSXT,20230517080652.55,114.20854909,22.68996499,57.5985,313.35,3.54,44.76,2.982,,3,3,24,23,8.579,11.067,0.217,2.100,2.117,-0.216,,*1B
1684310335877147008,7483,1684310335876725912,gps,$KSXT,20230517080652.60,114.20854934,22.68996530,57.5935,312.00,2.16,44.42,3.262,,3,3,24,23,8.605,11.101,0.212,2.283,2.330,-0.518,,*13
1684310335927769376,7484,1684310335927447795,gps,$KSXT,20230517080652.65,114.20854958,22.68996565,57.5774,310.80,3.79,41.11,3.425,,3,3,24,23,8.630,11.140,0.196,2.252,2.580,-0.994,,*16
1684310335977150176,7485,1684310335976786613,gps,$KSXT,20230517080652.70,114.20854980,22.68996601,57.5969,310.43,-0.51,36.40,3.567,,3,3,24,23,8.653,11.180,0.216,2.117,2.871,-0.525,,*39
1684310336024153056,7486,1684310336023813009,gps,$KSXT,20230517080652.75,114.20855002,22.68996634,57.6000,310.03,-1.38,33.43,3.440,,3,3,24,23,8.675,11.216,0.219,1.895,2.871,-0.011,,*30
1684310336076939328,7487,1684310336076597452,gps,$KSXT,20230517080652.80,114.20855023,22.68996669,57.5937,309.52,0.14,30.24,3.296,,3,3,24,23,8.696,11.255,0.212,1.660,2.847,0.112,,*31
1684310336127072512,7488,1684310336126697063,gps,$KSXT,20230517080652.85,114.20855046,22.68996693,57.5920,310.02,0.49,31.48,3.018,,3,3,24,23,8.720,11.281,0.211,1.576,2.573,0.459,,*3C
1684310336177529952,7489,1684310336176496267,gps,$KSXT,20230517080652.90,114.20855059,22.68996727,57.5984,309.85,1.41,26.37,2.794,,3,3,24,23,8.733,11.319,0.217,1.241,2.503,0.549,,*34
1684310336226834528,7490,1684310336226467847,gps,$KSXT,20230517080652.95,114.20855072,22.68996761,57.6066,309.46,-0.22,20.77,2.599,,3,3,24,23,8.747,11.356,0.225,0.922,2.430,0.386,,*15
1684310336280308320,7491,1684310336279900312,gps,$KSXT,20230517080653.00,114.20855085,22.68996796,57.6228,309.22,-2.91,18.02,2.595,,3,3,24,23,8.760,11.395,0.242,0.803,2.467,0.298,,*18
1684310336328317600,7492,1684310336328008413,gps,$KSXT,20230517080653.05,114.20855109,22.68996830,57.6228,308.63,-1.91,23.75,2.653,,3,3,24,23,8.785,11.432,0.242,1.069,2.429,-0.049,,*30
1684310336378712416,7493,1684310336378133058,gps,$KSXT,20230517080653.10,114.20855134,22.68996857,57.6141,308.48,0.04,31.77,2.715,,3,3,24,23,8.810,11.463,0.233,1.429,2.308,-0.287,,*19
1684310336428714176,7494,1684310336428411960,gps,$KSXT,20230517080653.15,114.20855164,22.68996879,57.5897,307.46,1.82,39.08,2.894,,3,3,23,23,8.842,11.488,0.208,1.824,2.246,-0.366,,*15
1684310336480147872,7495,1684310336479762792,gps,$KSXT,20230517080653.20,114.20855182,22.68996907,57.4763,307.07,3.75,32.88,3.075,,3,3,23,24,8.859,11.518,0.095,1.670,2.583,-1.084,,*10
1684310336527601184,7496,1684310336527333021,gps,$KSXT,20230517080653.25,114.20855200,22.68996943,57.4828,308.48,3.71,31.92,3.237,,3,3,23,24,8.878,11.558,0.102,1.711,2.747,-0.590,,*15
1684310336575061984,7497,1684310336574688434,gps,$KSXT,20230517080653.30,114.20855240,22.68996951,57.4458,309.98,6.42,43.06,3.202,,3,3,23,24,8.919,11.567,0.065,2.186,2.340,-0.501,,*10
1684310336626980128,7498,1684310336626678943,gps,$KSXT,20230517080653.35,114.20855268,22.68996979,57.4404,310.15,4.02,45.21,3.131,,3,3,22,23,8.948,11.598,0.059,2.222,2.206,-0.437,,*10
1684310336677090976,7499,1684310336676742553,gps,$KSXT,20230517080653.40,114.20855290,22.68997012,57.4575,310.76,4.37,42.42,3.059,,3,3,22,23,8.970,11.634,0.076,2.064,2.258,0.116,,*3A
1684310336727347616,7500,1684310336727005481,gps,$KSXT,20230517080653.45,114.20855313,22.68997038,57.4800,311.82,4.06,39.17,2.889,,3,3,22,23,8.995,11.663,0.099,1.825,2.240,0.796,,*33
1684310336777142400,7501,1684310336776748895,gps,$KSXT,20230517080653.50,114.20855335,22.68997061,57.4813,312.91,5.62,37.96,2.637,,3,3,22,23,9.017,11.689,0.100,1.622,2.079,1.205,,*3B
1684310336824218432,7502,1684310336823843479,gps,$KSXT,20230517080653.55,114.20855355,22.68997085,57.4868,313.60,3.36,34.01,2.507,,3,3,22,23,9.038,11.715,0.106,1.402,2.078,1.317,,*37
1684310336874402272,7503,1684310336874038934,gps,$KSXT,20230517080653.60,114.20855376,22.68997107,57.4669,313.77,3.32,33.03,2.430,,3,3,22,23,9.059,11.739,0.086,1.324,2.037,0.317,,*3F
1684310336924937024,7504,1684310336924520015,gps,$KSXT,20230517080653.65,114.20855404,22.68997127,57.4696,313.73,3.62,38.74,2.538,,3,3,22,23,9.088,11.762,0.088,1.588,1.979,0.281,,*3B
1684310336977837536,7505,1684310336977449417,gps,$KSXT,20230517080653.70,114.20855412,22.68997181,57.5008,313.85,2.80,41.37,2.577,,3,3,22,22,9.096,11.822,0.120,1.703,1.934,-0.149,,*16
1684310337028496736,7506,1684310337028201103,gps,$KSXT,20230517080653.75,114.20855431,22.68997211,57.5152,314.33,-0.22,39.69,2.574,,3,3,22,23,9.116,11.855,0.134,1.644,1.980,0.200,,*1F
1684310337077833152,7507,1684310337077489376,gps,$KSXT,20230517080653.80,114.20855468,22.68997217,57.4897,313.85,-1.11,37.03,2.695,,3,3,22,24,9.154,11.862,0.108,1.623,2.151,-0.161,,*3E
1684310337127757728,7508,1684310337127406120,gps,$KSXT,20230517080653.85,114.20855496,22.68997243,57.4706,313.46,1.48,36.93,2.853,,3,3,22,24,9.182,11.890,0.089,1.714,2.281,-0.581,,*11
1684310337177037952,7509,1684310337176731586,gps,$KSXT,20230517080653.90,114.20855528,22.68997271,57.4600,312.81,1.40,40.72,3.071,,3,3,22,24,9.215,11.922,0.079,2.004,2.328,-0.762,,*10
1684310337224748672,7510,1684310337224423170,gps,$KSXT,20230517080653.95,114.20855561,22.68997299,57.4547,312.64,1.36,45.40,3.223,,3,3,22,24,9.249,11.952,0.073,2.295,2.263,-0.865,,*1D
1684310337281912768,7511,1684310337281499862,gps,$KSXT,20230517080654.00,114.20855577,22.68997349,57.4678,311.84,3.05,46.63,3.423,,3,3,22,23,9.266,12.008,0.087,2.488,2.351,-1.034,,*1A
1684310337328991104,7512,1684310337328615903,gps,$KSXT,20230517080654.05,114.20855627,22.68997357,57.4609,310.81,1.82,45.70,3.604,,3,3,22,24,9.317,12.016,0.080,2.579,2.517,-0.021,,*19
1684310337379015456,7513,1684310337378703355,gps,$KSXT,20230517080654.10,114.20855653,22.68997389,57.4543,310.53,4.07,43.49,3.586,,3,3,22,24,9.344,12.052,0.073,2.468,2.601,0.442,,*31
1684310337429746144,7514,1684310337429456949,gps,$KSXT,20230517080654.15,114.20855674,22.68997422,57.4717,309.81,-0.09,39.48,3.394,,3,3,22,24,9.365,12.089,0.091,2.158,2.619,0.814,,*14
1684310337476633856,7515,1684310337476125717,gps,$KSXT,20230517080654.20,114.20855698,22.68997451,57.4819,308.91,-1.55,40.49,3.148,,3,3,22,24,9.390,12.121,0.101,2.044,2.394,0.699,,*17
1684310337528514816,7516,1684310337527943134,gps,$KSXT,20230517080654.25,114.20855725,22.68997482,57.4958,308.11,-0.94,41.54,2.985,,3,3,25,24,9.417,12.154,0.115,1.979,2.234,0.885,,*1A
1684310337576985312,7517,1684310337576561212,gps,$KSXT,20230517080654.30,114.20855749,22.68997508,57.4982,308.29,-1.90,40.28,2.771,,3,3,25,24,9.442,12.184,0.117,1.792,2.114,0.628,,*1D
1684310337628029664,7518,1684310337627496480,gps,$KSXT,20230517080654.35,114.20855772,22.68997537,57.4871,308.87,-3.06,37.52,2.695,,3,3,25,24,9.465,12.216,0.106,1.641,2.138,0.029,,*15
1684310337677741248,7519,1684310337677302360,gps,$KSXT,20230517080654.40,114.20855800,22.68997566,57.4715,308.19,-5.59,35.18,2.779,,3,3,24,24,9.494,12.248,0.090,1.601,2.271,-0.263,,*31
1684310337727647232,7520,1684310337727219820,gps,$KSXT,20230517080654.45,114.20855823,22.68997594,57.4655,308.93,-3.76,32.74,2.828,,3,3,24,24,9.518,12.279,0.084,1.530,2.379,-0.067,,*3E
1684310337777425888,7521,1684310337777062177,gps,$KSXT,20230517080654.50,114.20855849,22.68997616,57.4453,309.95,1.47,35.72,2.782,,3,3,24,24,9.545,12.304,0.064,1.624,2.259,-0.042,,*10
1684310337825685408,7522,1684310337825269222,gps,$KSXT,20230517080654.55,114.20855857,22.68997664,57.4664,310.64,5.15,40.46,2.810,,3,3,24,23,9.553,12.357,0.085,1.823,2.138,-0.455,,*1B
1684310337877687296,7523,1684310337877408742,gps,$KSXT,20230517080654.60,114.20855882,22.68997690,57.4698,311.00,4.81,42.92,2.827,,3,3,23,23,9.579,12.386,0.089,1.925,2.070,-0.266,,*1E
1684310337927315456,7524,1684310337927005767,gps,$KSXT,20230517080654.65,114.20855923,22.68997689,57.4490,311.37,-0.02,43.86,2.705,,3,3,23,24,9.621,12.385,0.068,1.874,1.950,-0.197,,*3B
1684310337978031008,7525,1684310337977336168,gps,$KSXT,20230517080654.70,114.20855951,22.68997714,57.4557,311.36,0.69,46.76,2.775,,3,3,23,23,9.649,12.412,0.074,2.022,1.901,0.353,,*3F
1684310338027355968,7526,1684310338027085065,gps,$KSXT,20230517080654.75,114.20855968,22.68997739,57.4639,312.80,0.85,43.05,2.563,,3,3,23,23,9.668,12.439,0.083,1.750,1.873,0.650,,*3D
1684310338077433056,7527,1684310338077087163,gps,$KSXT,20230517080654.80,114.20855986,22.68997761,57.4627,313.63,0.70,40.78,2.378,,3,3,23,23,9.685,12.463,0.081,1.553,1.800,0.405,,*3F
1684310338127498816,7528,1684310338127191781,gps,$KSXT,20230517080654.85,114.20856007,22.68997784,57.4482,313.90,2.99,39.78,2.278,,3,3,23,23,9.707,12.489,0.067,1.458,1.751,-0.070,,*14
1684310338177649824,7529,1684310338177377462,gps,$KSXT,20230517080654.90,114.20856033,22.68997807,57.4479,314.35,5.56,43.24,2.342,,3,3,23,23,9.734,12.514,0.067,1.605,1.706,-0.088,,*1D
1684310338228062560,7530,1684310338227742671,gps,$KSXT,20230517080654.95,114.20856040,22.68997857,57.4645,315.72,6.16,43.94,2.419,,3,3,23,22,9.742,12.570,0.083,1.679,1.742,-0.038,,*1B
1684310338284195488,7531,1684310338283841371,gps,$KSXT,20230517080655.00,114.20856065,22.68997883,57.4798,315.95,2.18,42.76,2.621,,3,3,23,22,9.767,12.599,0.099,1.780,1.924,0.092,,*31
1684310338328788512,7532,1684310338328472137,gps,$KSXT,20230517080655.05,114.20856090,22.68997910,57.4807,315.87,2.17,40.56,2.775,,3,3,23,22,9.793,12.629,0.099,1.804,2.108,0.186,,*31
1684310338379210272,7533,1684310338378893375,gps,$KSXT,20230517080655.10,114.20856120,22.68997936,57.4844,314.72,2.95,40.94,3.044,,3,3,23,22,9.824,12.657,0.103,1.995,2.299,-0.007,,*18
1684310338429492128,7534,1684310338429123163,gps,$KSXT,20230517080655.15,114.20856147,22.68997964,57.4899,313.99,0.31,41.72,3.216,,3,3,23,22,9.851,12.688,0.109,2.140,2.401,0.096,,*32
1684310338480282368,7535,1684310338479906082,gps,$KSXT,20230517080655.20,114.20856191,22.68997994,57.6424,313.02,-1.91,41.80,3.396,,3,3,23,23,9.897,12.722,0.261,2.264,2.532,0.005,,*11
1684310338527013152,7536,1684310338526685953,gps,$KSXT,20230517080655.25,114.20856220,22.68998023,57.6339,312.32,1.27,43.36,3.402,,3,3,23,23,9.926,12.755,0.253,2.336,2.473,-0.029,,*10
1684310338577667776,7537,1684310338577227354,gps,$KSXT,20230517080655.30,114.20856249,22.68998049,57.6394,312.48,-0.04,46.50,3.343,,3,3,23,23,9.956,12.783,0.258,2.425,2.301,-0.201,,*3F
1684310338626766496,7538,1684310338626395702,gps,$KSXT,20230517080655.35,114.20856280,22.68998077,57.6442,312.57,-0.31,47.86,3.272,,3,3,23,23,9.988,12.813,0.263,2.427,2.195,-0.258,,*33
1684310338676762624,7539,1684310338676424980,gps,$KSXT,20230517080655.40,114.20856307,22.68998102,57.6439,312.35,-1.15,45.66,3.117,,3,3,23,23,10.016,12.842,0.263,2.229,2.178,0.078,,*2B
1684310338726687744,7540,1684310338726368188,gps,$KSXT,20230517080655.45,114.20856342,22.68998128,57.6524,311.55,-2.43,46.25,3.103,,3,3,23,23,10.052,12.871,0.271,2.241,2.146,0.678,,*28
1684310338773855264,7541,1684310338773493766,gps,$KSXT,20230517080655.50,114.20856370,22.68998155,57.6528,311.01,-0.70,42.80,3.013,,3,3,23,23,10.080,12.900,0.272,2.047,2.211,0.593,,*2B
1684310338827028448,7542,1684310338826603889,gps,$KSXT,20230517080655.55,114.20856393,22.68998178,57.6530,311.11,-0.53,41.31,2.831,,3,3,23,23,10.104,12.926,0.272,1.869,2.127,0.500,,*27
1684310338876869568,7543,1684310338876506328,gps,$KSXT,20230517080655.60,114.20856416,22.68998201,57.6361,311.57,1.02,42.66,2.602,,3,3,23,23,10.127,12.952,0.255,1.763,1.913,0.017,,*0C
1684310338927372288,7544,1684310338926992177,gps,$KSXT,20230517080655.65,114.20856447,22.68998227,57.6426,310.84,-0.49,45.58,2.687,,3,3,23,23,10.159,12.980,0.261,1.919,1.881,-0.041,,*00
1684310338977803040,7545,1684310338977402210,gps,$KSXT,20230517080655.70,114.20856475,22.68998251,57.6366,311.16,0.47,45.92,2.726,,3,3,23,23,10.189,13.006,0.255,1.958,1.896,-0.369,,*24
1684310339024776896,7546,1684310339023970842,gps,$KSXT,20230517080655.75,114.20856504,22.68998278,57.6380,311.37,1.09,44.41,2.775,,3,3,23,23,10.218,13.036,0.257,1.942,1.983,-0.250,,*2B
1684310339077758464,7547,1684310339077469348,gps,$KSXT,20230517080655.80,114.20856527,22.68998304,57.6392,311.71,0.79,43.83,2.746,,3,3,23,23,10.241,13.065,0.258,1.901,1.981,-0.280,,*29
1684310339127655008,7548,1684310339127342939,gps,$KSXT,20230517080655.85,114.20856549,22.68998335,57.6395,311.70,1.84,41.12,2.865,,3,3,23,23,10.265,13.099,0.258,1.884,2.158,-0.242,,*2F
1684310339179407584,7549,1684310339177561521,gps,$KSXT,20230517080655.90,114.20856575,22.68998365,57.6552,311.40,-0.73,37.37,2.934,,3,3,23,23,10.291,13.133,0.274,1.781,2.332,-0.160,,*0B
1684310339227382560,7550,1684310339227105140,gps,$KSXT,20230517080655.95,114.20856594,22.68998392,57.6498,311.74,-2.92,35.55,2.766,,3,3,23,23,10.311,13.163,0.269,1.608,2.250,-0.467,,*0C
1684310339283713664,7551,1684310339283363819,gps,$KSXT,20230517080656.00,114.20856623,22.68998415,57.6641,311.64,-4.79,41.50,2.740,,3,3,23,23,10.341,13.188,0.283,1.816,2.052,0.047,,*2C
1684310339329116416,7552,1684310339328834056,gps,$KSXT,20230517080656.05,114.20856649,22.68998435,57.6668,312.19,-4.26,45.64,2.625,,3,3,22,23,10.367,13.211,0.286,1.877,1.836,0.542,,*23
1684310339379835872,7553,1684310339379483938,gps,$KSXT,20230517080656.10,114.20856668,22.68998456,57.6658,313.92,-2.57,45.97,2.497,,3,3,22,23,10.387,13.234,0.285,1.795,1.735,0.552,,*23
1684310339427609856,7554,1684310339427284479,gps,$KSXT,20230517080656.15,114.20856686,22.68998480,57.6678,314.46,-1.44,43.20,2.345,,3,3,22,23,10.405,13.260,0.287,1.605,1.709,0.202,,*29
1684310339475575392,7555,1684310339475182771,gps,$KSXT,20230517080656.20,114.20856704,22.68998508,57.6452,314.03,2.73,37.59,2.343,,3,3,22,23,10.424,13.291,0.264,1.429,1.856,-0.170,,*2D
1684310339528832160,7556,1684310339528389692,gps,$KSXT,20230517080656.25,114.20856727,22.68998535,57.6395,313.92,5.83,33.15,2.537,,3,3,22,23,10.447,13.321,0.258,1.387,2.124,-0.266,,*2D
1684310339578627648,7557,1684310339578282356,gps,$KSXT,20230517080656.30,114.20856750,22.68998567,57.6484,313.31,2.52,31.62,2.785,,3,3,22,23,10.471,13.356,0.267,1.460,2.372,-0.032,,*27
1684310339628311680,7558,1684310339627876758,gps,$KSXT,20230517080656.35,114.20856771,22.68998599,57.6594,313.84,2.13,29.52,2.939,,3,3,21,23,10.492,13.392,0.278,1.448,2.557,0.101,,*07
1684310339678318464,7559,1684310339677969932,gps,$KSXT,20230517080656.40,114.20856801,22.68998624,57.6664,313.15,0.34,35.69,2.956,,3,3,21,23,10.524,13.419,0.285,1.724,2.401,0.195,,*0B
1684310339727908096,7560,1684310339727452278,gps,$KSXT,20230517080656.45,114.20856828,22.68998642,57.6509,312.58,0.31,43.76,2.877,,3,3,22,23,10.551,13.439,0.270,1.990,2.078,-0.196,,*21
1684310339777928704,7561,1684310339777536153,gps,$KSXT,20230517080656.50,114.20856850,22.68998665,57.6366,312.91,2.72,45.02,2.817,,3,3,21,22,10.574,13.465,0.255,1.993,1.991,-0.389,,*2A
1684310339827599776,7562,1684310339827341556,gps,$KSXT,20230517080656.55,114.20856881,22.68998691,57.6292,312.81,2.93,48.33,2.896,,3,3,21,22,10.605,13.494,0.248,2.163,1.925,-0.580,,*29
1684310339877793440,7563,1684310339877492189,gps,$KSXT,20230517080656.60,114.20856901,22.68998724,57.6085,312.82,3.44,43.57,2.971,,3,3,21,22,10.626,13.530,0.227,2.048,2.152,-0.942,,*22
1684310339924985024,7564,1684310339924681663,gps,$KSXT,20230517080656.65,114.20856924,22.68998759,57.6041,312.30,2.87,39.06,3.133,,3,3,21,22,10.649,13.570,0.223,1.974,2.433,-0.774,,*26
1684310339977674944,7565,1684310339977355480,gps,$KSXT,20230517080656.70,114.20856950,22.68998794,57.6111,311.49,1.18,34.99,3.336,,3,3,21,22,10.676,13.608,0.230,1.913,2.733,0.161,,*0F
1684310340025580320,7566,1684310340025204181,gps,$KSXT,20230517080656.75,114.20856977,22.68998826,57.6276,310.74,1.96,33.83,3.456,,3,3,21,22,10.704,13.643,0.246,1.924,2.871,0.819,,*0E
1684310340077826624,7567,1684310340077479362,gps,$KSXT,20230517080656.80,114.20857003,22.68998858,57.6403,309.73,3.36,34.20,3.437,,3,3,21,22,10.731,13.679,0.259,1.932,2.843,1.342,,*0F
1684310340127587072,7568,1684310340127207279,gps,$KSXT,20230517080656.85,114.20857030,22.68998885,57.6358,308.98,1.46,36.01,3.266,,3,3,21,21,10.759,13.709,0.255,1.920,2.642,0.897,,*08
1684310340177443424,7569,1684310340177148103,gps,$KSXT,20230517080656.90,114.20857058,22.68998907,57.6292,308.90,2.10,42.41,2.982,,3,3,21,21,10.788,13.732,0.248,2.011,2.202,0.444,,*03
1684310340224607680,7570,1684310340224316596,gps,$KSXT,20230517080656.95,114.20857090,22.68998925,57.6214,309.41,2.97,51.13,2.838,,3,3,21,21,10.821,13.753,0.240,2.210,1.781,0.443,,*01
1684310340283669440,7571,1684310340283241033,gps,$KSXT,20230517080657.00,114.20857120,22.68998947,57.6048,310.41,5.42,54.10,2.731,,3,3,21,21,10.851,13.777,0.224,2.212,1.601,-0.036,,*2D
1684310340329230816,7572,1684310340328881978,gps,$KSXT,20230517080657.05,114.20857144,22.68998977,57.6049,310.62,4.50,49.99,2.697,,3,3,21,21,10.876,13.811,0.224,2.066,1.734,-0.442,,*20
1684310340379434976,7573,1684310340379002332,gps,$KSXT,20230517080657.10,114.20857158,22.68999010,57.6019,311.23,4.24,39.60,2.651,,3,3,21,21,10.890,13.847,0.221,1.690,2.043,-0.999,,*24
