%time,field.header.seq,field.header.stamp,x,y,z
1684310324177146208,7249,1684310324176835298,0.0,0.0,57.6448
1684310324227258720,7250,1684310324226908445,-2.0837876945734024e-05,-0.0011078841052949429,57.647
1684310324283483968,7251,1684310324283143281,-0.0010280031128786504,1.9335653632879257e-05,57.6429
1684310324328483904,7252,1684310324328069686,-0.0010071652941405773,0.0011272188276052475,57.6484
1684310324379191808,7253,1684310324378822326,-0.006126345368102193,0.0023317793384194374,57.6409
1684310324428959680,7254,1684310324428663730,-0.003000657947268337,0.004489540122449398,57.645
1684310324480148896,7255,1684310324479887008,-0.006063831853680313,0.005655430257320404,57.6189
1684310324526893056,7256,1684310324526590347,-0.006084669730626047,0.004547546152025461,57.6182
1684310324578063904,7257,1684310324577678918,-0.006126345368102193,0.0023317793384194374,57.6212
1684310324627244960,7258,1684310324626734495,-0.011349714710377157,-0.002003077883273363,57.6239
1684310324677168864,7259,1684310324676845312,-0.009293707204051316,-0.0020417487248778343,57.6269
1684310324727154336,7260,1684310324726814746,-0.012419393460731953,-0.004199509508907795,57.6173
1684310324777513120,7261,1684310324777083873,-0.009356220776680857,-0.005365400109440088,57.6253
1684310324829282816,7262,1684310324826761245,-0.0083490542601794,-0.006492619402706623,57.6178
1684310324877405504,7263,1684310324877022981,-0.007300213328562677,-0.0054040709510445595,57.624
1684310324927031104,7264,1684310324926549196,-0.008328216325026006,-0.00538473529741168,57.6268
1684310324974279840,7265,1684310324973868131,-0.00937705853721127,-0.006473283749073744,57.6338
1684310325027263040,7266,1684310325026869297,-0.00937705853721127,-0.006473283749073744,57.632
1684310325074408576,7267,1684310325074069976,-0.004341231135185808,-0.012109377887099981,57.6339
1684310325127176000,7268,1684310325126751184,-0.008453243353869766,-0.012032036203891039,57.6301
1684310325176944128,7269,1684310325176609754,-0.0053900707280263305,-0.013197926338762045,57.635
1684310325227197536,7270,1684310325226829290,-0.00950208556605503,-0.013120584655553102,57.6299
1684310325283389152,7271,1684310325283097505,-0.0033757389755919576,-0.015452364459633827,57.6316
1684310325328947040,7272,1684310325328471660,-0.0033340632799081504,-0.013236597180366516,57.6304
1684310325379253728,7273,1684310325378522872,-0.00436206889571622,-0.013217262458056211,57.6318
1684310325429853472,7274,1684310325429534196,-0.004382906714454293,-0.01432514563202858,57.6286
1684310325478693440,7275,1684310325478361368,-0.0023477370850741863,-0.015471700578927994,57.6329
1684310325528782208,7276,1684310325528442859,-0.006522264156956226,-0.018718008883297443,57.6273
1684310325578558528,7277,1684310325578260898,-0.006543102092109621,-0.019825892988592386,57.6414
1684310325628072672,7278,1684310325627624511,-0.007550267328042537,-0.01869867416098714,57.6327
1684310325677684608,7279,1684310325677361488,-0.0035007658298127353,-0.022099665831774473,57.6417
1684310325727614944,7280,1684310325727125644,-0.005452584126032889,-0.0165215777233243,57.6317
1684310325777404736,7281,1684310325777109146,-0.0003334052744321525,-0.0177261377684772,57.6397
1684310325824772832,7282,1684310325824436187,-0.00327154976548627,-0.009912946727126837,57.6367
1684310325874986208,7283,1684310325874576091,-0.008244864933658391,-0.000953200738877058,57.6337
1684310325927986944,7284,1684310325927612066,-0.008057324506808072,0.009017751552164555,57.6253
1684310325975140256,7285,1684310325974743604,-0.008856112719513476,0.02122380631044507,57.6192
1684310326027845728,7286,1684310326027517080,-0.013808590243570507,0.031291435938328505,57.6161
1684310326077884288,7287,1684310326077560901,-0.01678841153625399,0.03688885970041156,57.6126
1684310326128202016,7288,1684310326127794742,-0.020817075099330395,0.04139773594215512,57.6177
1684310326175721856,7289,1684310326175298929,-0.017712226777803153,0.04244761308655143,57.6156
1684310326228156064,7290,1684310326227793216,-0.02585290389833972,0.047033831011503935,57.6055
1684310326281871712,7291,1684310326281467437,-0.023713546514045447,0.051426694728434086,57.6068
1684310326329119872,7292,1684310326328733682,-0.025644525594543666,0.0581126669421792,57.6085
1684310326378737600,7293,1684310326376336097,-0.026484989386517555,0.06810295535251498,57.6014
1684310326431091392,7294,1684310326430662631,-0.04633657488739118,0.10615770518779755,57.6136
1684310326481036192,7295,1684310326480722665,-0.017698338138870895,0.09786112885922194,57.6502
1684310326527961248,7296,1684310326527567148,-0.020303079683799297,0.12340045813471079,57.6616
1684310326578395680,7297,1684310326578057289,-0.02498466509860009,0.14787057414650917,57.6663
1684310326627725056,7298,1684310326627351522,-0.017476072360295802,0.1643534805625677,57.6579
1684310326677633184,7299,1684310326677280187,-0.009904965932946652,0.18416003743186593,57.6574
1684310326728035872,7300,1684310326727671861,-0.0013475307496264577,0.20173149229958653,57.6651
1684310326777494720,7301,1684310326777162075,0.017427425307687372,0.21578594157472253,57.6553
1684310326827978944,7302,1684310326827650547,0.04140491405269131,0.23306736443191767,57.6783
1684310326877926880,7303,1684310326877474308,0.05310887168161571,0.2539044637233019,57.6801
1684310326928113920,7304,1684310326927791118,0.05864480836316943,0.2748575755394995,57.6811
1684310326977664160,7305,1684310326977374792,0.06722308119060472,0.2935369126498699,57.6819
1684310327028366016,7306,1684310327027957916,0.04932331293821335,0.326013573911041,57.67
1684310327078386912,7307,1684310327077648162,0.06201359920669347,0.3446155716665089,57.6732
1684310327128474912,7308,1684310327128021478,0.0613606758415699,0.36457681143656373,57.6599
1684310327178449568,7309,1684310327178040742,0.06274292344460264,0.3833914967253804,57.6514
1684310327224796992,7310,1684310327224522829,0.06402098044054583,0.3966667647473514,57.6487
1684310327281018464,7311,1684310327280715942,0.06112451042281464,0.40669572353363037,57.647
1684310327329609376,7312,1684310327329282522,0.06124953739345074,0.4133430253714323,57.6459
1684310327380007648,7313,1684310327379244327,0.06544490356463939,0.4176972177810967,57.6501
1684310327430974656,7314,1684310327430531501,0.0685289140092209,0.41763921175152063,57.6575
1684310327477104640,7315,1684310327476762294,0.07371060753939673,0.4197583021596074,57.671
1684310327528502944,7316,1684310327528104543,0.0788506266544573,0.4196616252884269,57.6778
1684310327576059520,7317,1684310327575622081,0.08090663264738396,0.4196229539811611,57.6651
1684310327628824000,7318,1684310327628389835,0.07889230235014111,0.4218773925676942,57.6655
1684310327678120480,7319,1684310327677616596,0.08512283669551834,0.42508503003045917,57.6686
1684310327727900352,7320,1684310327727464675,0.08407399576390162,0.4239964825101197,57.6569
1684310327778820480,7321,1684310327778356313,0.08503948536235839,0.42065349593758583,57.637
1684310327828520576,7322,1684310327828019857,0.0942290032398887,0.41715582739561796,57.6386
1684310327876137184,7323,1684310327875301361,0.09819515311392024,0.40932330023497343,57.6468
1684310327928710528,7324,1684310327928390026,0.10839183762436733,0.40469841193407774,57.6663
1684310327980270464,7325,1684310327978170394,0.10520363796968013,0.3992169997654855,57.6812
1684310328025566272,7326,1684310328025188684,0.1111632818938233,0.38802215130999684,57.6846
1684310328078109696,7327,1684310328077720403,0.11615743493894115,0.380170289427042,57.6942
1684310328128051776,7328,1684310328127669811,0.11596989451209083,0.3701993371360004,57.679
1684310328175203584,7329,1684310328174822568,0.11987353092990816,0.3590431595221162,57.6809
1684310328227754048,7330,1684310328227405786,0.11460848490241915,0.3524925350211561,57.6812
1684310328283770784,7331,1684310328283433675,0.11345545487711206,0.345864568836987,57.6855
1684310328325911520,7332,1684310328325551986,0.10718324355548248,0.34044116269797087,57.6899
1684310328379615808,7333,1684310328379176378,0.10812789655756205,0.33599029341712594,57.6914
1684310328429738368,7334,1684310328429250955,0.10298787866486236,0.3360869702883065,57.6754
1684310328484148352,7335,1684310328480735778,0.09180486557306722,0.34294696152210236,57.6104
1684310328527977792,7336,1684310328527637720,0.0897280202480033,0.34187774872407317,57.6165
1684310328578054560,7337,1684310328577700138,0.09279119287384674,0.34071185858920217,57.6221
1684310328625170976,7338,1684310328624800920,0.091742352116853,0.3396233106032014,57.6239
1684310328677526560,7339,1684310328677177906,0.0948055248009041,0.3384574204683304,57.6232
1684310328727675456,7340,1684310328727352380,0.09176318987738341,0.34073119377717376,57.6233
1684310328778844672,7341,1684310328777441024,0.09073518554214388,0.34075052943080664,57.6362
1684310328827033216,7342,1684310328826679706,0.08867917815223336,0.3407891998067498,57.6237
1684310328877361728,7343,1684310328877088546,0.08970718242926523,0.34076986461877823,57.6285
1684310328927532000,7344,1684310328927227497,0.08970718242926523,0.34076986461877823,57.6241
1684310328977868928,7345,1684310328977546691,0.08349748596083373,0.33867010986432433,57.6233
1684310329027879456,7346,1684310329027572631,0.08347664802568033,0.3375622262246907,57.6267
1684310329077726496,7347,1684310329077431201,0.08553265413502231,0.3375235553830862,57.6202
1684310329127317184,7348,1684310329126967191,0.08246948290616274,0.3386894450522959,57.6232
1684310329176969632,7349,1684310329176521301,0.08966550684999675,0.3385540973395109,57.6366
1684310329226929248,7350,1684310329226537227,0.09069350984646007,0.3385347621515393,57.6373
1684310329282741440,7351,1684310329282482624,0.09069350984646007,0.3385347621515393,57.6169
1684310329328669504,7352,1684310329328283309,0.08966550684999675,0.3385540973395109,57.6219
1684310329378665888,7353,1684310329378301858,0.08872085378970951,0.3430049675516784,57.6264
1684310329429917984,7354,1684310329429535627,0.09285370638826862,0.34403550950810313,57.6343
1684310329477910976,7355,1684310329477483034,0.09188821684801951,0.3473784951493144,57.6255
1684310329524752576,7356,1684310329524294376,0.09406925126677379,0.35398712707683444,57.6326
1684310329577862784,7357,1684310329577124595,0.09423595387488604,0.3628501947969198,57.6258
1684310329628377632,7358,1684310329627805233,0.09543065959587693,0.3716939282603562,57.6258
1684310329677240416,7359,1684310329676858901,0.08949185349047184,0.38399665988981724,57.6334
1684310329726792480,7360,1684310329726445198,0.08970023179426789,0.3950754962861538,57.6244
1684310329777101536,7361,1684310329776671409,0.08898479613708332,0.41171308560296893,57.6315
1684310329828285088,7362,1684310329827805995,0.0861300032120198,0.4239578116685152,57.6113
1684310329878190816,7363,1684310329877783536,0.0853312149993144,0.4361638664267957,57.5958
1684310329925086368,7364,1684310329924721717,0.08153176767518744,0.4528594617731869,57.5973
1684310329978151936,7365,1684310329977821588,0.07974665338406339,0.46730061899870634,57.5837
1684310330025145728,7366,1684310330024819135,0.07485668826848269,0.48069190001115203,57.5844
1684310330078217472,7367,1684310330077866077,0.0689178835018538,0.4929946316406131,57.58
1684310330128339968,7368,1684310330128054857,0.059957580582704395,0.5086790206842124,57.5843
1684310330177822720,7369,1684310330177500486,0.059179630246944726,0.5219929595477879,57.5909
1684310330227355840,7370,1684310330227087020,0.0471353181055747,0.537735354155302,57.5733
1684310330283729280,7371,1684310330283456087,0.040314374084118754,0.5578126069158316,57.5979
1684310330328958464,7372,1684310330328607797,0.04482230782741681,0.5787850534543395,57.5901
1684310330380961312,7373,1684310330379469871,0.05858227121643722,0.5995834823697805,57.6123
1684310330430906112,7374,1684310330430420637,0.07655844138935208,0.625843986403197,57.6243
1684310330481410368,7375,1684310330481028556,0.08012172183953226,0.6512673026882112,57.5733
1684310330528443424,7376,1684310330528002023,0.09725742659065872,0.6875180960632861,57.5579
1684310330579596352,7377,1684310330578521490,0.11128828447544947,0.7227190104313195,57.5681
1684310330627796768,7378,1684310330627390623,0.1221934548811987,0.7557621649466455,57.5647
1684310330677563616,7379,1684310330677127122,0.1452888031490147,0.7808181084692478,57.5588
1684310330727179648,7380,1684310330726740837,0.1642721380922012,0.8059513946063817,57.5722
1684310330777214432,7381,1684310330776783943,0.1771291252807714,0.8334164591506124,57.5712
1684310330827130208,7382,1684310330826819181,0.17765007098205388,0.8611135492101312,57.5661
1684310330877321088,7383,1684310330876951217,0.17913650878472254,0.8854676536284387,57.5442
1684310330927595616,7384,1684310330927184820,0.18479747092351317,0.9130680658854544,57.5421
1684310330977728512,7385,1684310330977319478,0.20596183987800032,0.944809983484447,57.5604
1684310331027617600,7386,1684310331027312278,0.21581816917750984,0.9767645890824497,57.583
1684310331077653792,7387,1684310331077326536,0.23077283916063607,1.0064067509956658,57.5768
1684310331127588544,7388,1684310331127201080,0.23232178896432742,1.0340845054015517,57.5635
1684310331178143456,7389,1684310331176961421,0.2338498999015428,1.0606543766334653,57.5477
1684310331226941568,7390,1684310331226602554,0.24253236001823097,1.0848731324076653,57.5382
1684310331283538944,7391,1684310331283185243,0.2440187963657081,1.1092272368259728,57.5477
1684310331328750496,7392,1684310331328334331,0.24961724621243775,1.1335039981640875,57.5329
1684310331379065088,7393,1684310331378495454,0.2551531824283302,1.1544571095146239,57.5468
1684310331430175808,7394,1684310331429666757,0.260834984772373,1.183165406808257,57.5412
1684310331478055712,7395,1684310331477705001,0.2695382814272307,1.2084920462220907,57.5313
1684310331527799648,7396,1684310331527406930,0.28336076013511047,1.2326141251251101,57.5375
1684310331578043392,7397,1684310331577718257,0.2870073917438276,1.262468975968659,57.5544
1684310331627318656,7398,1684310331626984357,0.2927308683283627,1.2933930405415595,57.5722
1684310331676743552,7399,1684310331676294803,0.29020947933895513,1.323363902978599,57.5788
1684310331727505088,7400,1684310331727091312,0.29889194056158885,1.3475826592184603,57.5605
1684310331777443552,7401,1684310331777038097,0.30556006875121966,1.3740558540448546,57.5561
1684310331827621600,7402,1684310331827213287,0.31432587996823713,1.4027061434462667,57.5566
1684310331877839168,7403,1684310331877425193,0.32936390198301524,1.4367798399180174,57.5515
1684310331927524128,7404,1684310331927163124,0.3515979486401193,1.4707181882113218,57.5524
1684310331974897536,7405,1684310331974497795,0.3717759880819358,1.504695207811892,57.5505
1684310332024906176,7406,1684310332024616479,0.3899188578943722,1.539818781428039,57.5531
1684310332077934048,7407,1684310332077458143,0.4100968970451504,1.5737958010286093,57.5449
1684310332127855712,7408,1684310332127525568,0.43742928525898606,1.6054217056371272,57.5517
1684310332177636384,7409,1684310332177311897,0.46589386533014476,1.6425676918588579,57.5704
1684310332224938304,7410,1684310332224577903,0.4840575713897124,1.6787991495802999,57.5774
1684310332283244064,7411,1684310332282904148,0.5021587664377876,1.7117069559171796,57.5737
1684310332329828800,7412,1684310332328991413,0.5203016357845627,1.746830529998988,57.5769
1684310332378883520,7413,1684310332378577470,0.531373507459648,1.788736753165722,57.563
1684310332429289408,7414,1684310332429013729,0.5546563952811994,1.8237636499106884,57.5506
1684310332481066368,7415,1684310332480433702,0.5705973912263289,1.8511707088910043,57.5738
1684310332527796992,7416,1684310332527391195,0.5961238263989799,1.8961298875510693,57.5681
1684310332578415424,7417,1684310332578052759,0.6101755201234482,1.932438686490059,57.5784
1684310332624916480,7418,1684310332624469041,0.6201568737160414,1.9710405939258635,57.5894
1684310332677360160,7419,1684310332677004575,0.6269291903008707,2.003053206484765,57.59
1684310332727415488,7420,1684310332726994276,0.6387790121953003,2.0316454912535846,57.6069
1684310332777343488,7421,1684310332776960849,0.6577415058272891,2.055670893751085,57.609
1684310332824834464,7422,1684310332824343204,0.6675144825130701,2.083193965256214,57.5969
1684310332877423872,7423,1684310332877072095,0.6895401495276019,2.1060534776188433,57.5905
1684310332927278176,7424,1684310332926942348,0.7044531421852298,2.1334798727184534,57.59
1684310332977339904,7425,1684310332977032661,0.7183798086480238,2.1631413702853024,57.5915
1684310333027498240,7426,1684310333027181625,0.7456288440735079,2.1903357403352857,57.6054
1684310333076750016,7427,1684310333076274156,0.7687867028289475,2.2187153357081115,57.5976
1684310333127767488,7428,1684310333127454757,0.7807615509955212,2.2539549223147333,57.59
1684310333177335456,7429,1684310333177064895,0.7907845795853063,2.294772596564144,57.5635
1684310333224652640,7430,1684310333224260568,0.8099554519867525,2.3298768354579806,57.5553
1684310333283488704,7431,1684310333283133029,0.838232489884831,2.3570518703199923,57.5487
1684310333327409344,7432,1684310333326997041,0.8634046810911968,2.383177028503269,57.5502
1684310333379106560,7433,1684310333378697395,0.8940086170914583,2.4247158798389137,57.5739
1684310333426921376,7434,1684310333426382064,0.9265852077514865,2.461784526705742,57.602
1684310333474595136,7435,1684310333474222421,0.9497847426100634,2.4923798888921738,57.6059
1684310333526890272,7436,1684310333526586771,0.9749360943678766,2.5173971634358168,57.6173
1684310333577389504,7437,1684310333577057361,0.9908562524942681,2.5436963397078216,57.6087
1684310333624039712,7438,1684310333623639345,1.015042113198433,2.572056599892676,57.6025
1684310333676435424,7439,1684310333676135063,1.0413673320435919,2.6048097242601216,57.5971
1684310333726761504,7440,1684310333726396322,1.0718254040111788,2.638593390583992,57.594
1684310333776832640,7441,1684310333776431083,1.0971851331996731,2.6746895015239716,57.5899
1684310333826656960,7442,1684310333826263189,1.1276015281328,2.7062574005685747,57.5816
1684310333877600608,7443,1684310333877196550,1.1528987435740419,2.739029860123992,57.5745
1684310333927580448,7444,1684310333927151203,1.170999935013242,2.771937666926533,57.5648
1684310333977732160,7445,1684310333977411746,1.2012287909165025,2.7935346141457558,57.5563
1684310334027546112,7446,1684310334027139902,1.2254146509221755,2.8218948752619326,57.5798
1684310334074822112,7447,1684310334074167966,1.249621348513756,2.851363019552082,57.6037
1684310334124665120,7448,1684310334124273300,1.2695910066831857,2.874261203687638,57.6226
1684310334176748064,7449,1684310334176205158,1.2895815038355067,2.898267271928489,57.6181
1684310334227271840,7450,1684310334226826190,1.313725687970873,2.9244117652997375,57.6107
1684310334282719520,7451,1684310334282281875,1.332813207351137,2.955084470100701,57.6031
1684310334328558240,7452,1684310334328113079,1.366209422412794,2.981054945848882,57.6162
1684310334378705184,7453,1684310334378280162,1.3924721265793778,3.010484419297427,57.6048
1684310334428957088,7454,1684310334428486108,1.4178318556514569,3.0465805302374065,57.6027
1684310334480288128,7455,1684310334479846477,1.4672176932217553,3.0478682019747794,57.5859
1684310334526963840,7456,1684310334526675224,1.4954322166158818,3.071719587314874,57.568
1684310334577657056,7457,1684310334577330350,1.5247372548328713,3.098875288851559,57.5761
1684310334627392352,7458,1684310334627066373,1.555049459275324,3.1249037701636553,57.5817
1684310334677281600,7459,1684310334676858663,1.5823610047227703,3.1554217929951847,57.5746
1684310334728009824,7460,1684310334727600812,1.6065677024889737,3.184889937750995,57.5772
1684310334774167648,7461,1684310334773861885,1.6399222409818321,3.2086446471512318,57.5883
1684310334826703104,7462,1684310334826314926,1.6732559415977448,3.2312914724461734,57.587
1684310334874849504,7463,1684310334874485731,1.6942536027054302,3.2541703209280968,57.5873
1684310334924978144,7464,1684310334924664974,1.7213776068529114,3.274717391934246,57.5963
1684310334977259296,7465,1684310334976827621,1.7475569602102041,3.29971533222124,57.6001
1684310335024944704,7466,1684310335024482727,1.768658808490727,3.328133599832654,57.5937
1684310335077704768,7467,1684310335077348709,1.7938935098354705,3.357582409400493,57.5875
1684310335127865632,7468,1684310335127449750,1.8139881916576996,3.387127895373851,57.6021
1684310335177703072,7469,1684310335177315950,1.8371460479684174,3.415507492609322,57.5915
1684310335227135808,7470,1684310335226690053,1.8653814066783525,3.4404667620547116,57.5831
1684310335286790560,7471,1684310335286164283,1.8914774073055014,3.4610331673175097,57.5732
1684310335328994048,7472,1684310335328543663,1.9105024117743596,3.4883822221308947,57.5739
1684310335378824384,7473,1684310335378399133,1.934688269335311,3.516742483712733,57.5886
1684310335429647776,7474,1684310335429255247,1.957887799537275,3.547337848227471,57.6056
1684310335477820736,7475,1684310335477336406,1.9727799522224814,3.5736563596874475,57.5969
1684310335528315616,7476,1684310335527302980,1.9897281117737293,3.599936201237142,57.5918
1684310335577782848,7477,1684310335577359676,2.006634595862124,3.624000276438892,57.5905
1684310335627372960,7478,1684310335626889705,2.0256804364034906,3.6524572144262493,57.6017
1684310335676687200,7479,1684310335676321268,2.045775118691381,3.6820027008652687,57.5941
1684310335726883040,7480,1684310335726541757,2.0699609758448787,3.7103629619814456,57.5995
1684310335776692576,7481,1684310335776355266,2.0961820019292645,3.737576670013368,57.5984
1684310335827223808,7482,1684310335826660394,2.127584722766187,3.7669094684533775,57.5985
1684310335877147008,7483,1684310335876725912,2.1539307750063017,3.8007704778574407,57.5935
1684310335927769376,7484,1684310335927447795,2.179332173895091,3.839082356542349,57.5774
1684310335977150176,7485,1684310335976786613,2.202698406064883,3.878540789708495,57.5969
1684310336024153056,7486,1684310336023813009,2.226002123730723,3.9146755719557405,57.6
1684310336076939328,7487,1684310336076597452,2.2483195139211603,3.953045457135886,57.5937
1684310336127072512,7488,1684310336126697063,2.2724636947968975,3.979189951904118,57.592
1684310336177529952,7489,1684310336176496267,2.286536220810376,4.016606635414064,57.5984
1684310336226834528,7490,1684310336226467847,2.3006087468238547,4.054023319389671,57.6066
1684310336280308320,7491,1684310336279900312,2.3147021078621037,4.092547886073589,57.6228
1684310336328317600,7492,1684310336328008413,2.3400826708530076,4.129751881584525,57.6228
1684310336378712416,7493,1684310336378133058,2.3663453711778857,4.159181356895715,57.6141
1684310336428714176,7494,1684310336428411960,2.397643899603281,4.182974738068879,57.5897
1684310336480147872,7495,1684310336479762792,2.4167314154910855,4.213647443335503,57.4763
1684310336527601184,7496,1684310336527333021,2.435985631600488,4.253183218184859,57.4828
1684310336575061984,7497,1684310336574688434,2.477272466116119,4.261272876523435,57.4458
1684310336626980128,7498,1684310336626678943,2.506640014646109,4.291752229444683,57.4404
1684310336677090976,7499,1684310336676742553,2.5299437310895883,4.327887012157589,57.4575
1684310336727347616,7500,1684310336727005481,2.5541295876028016,4.356247273739427,57.48
1684310336777142400,7501,1684310336776748895,2.5772249269648455,4.38130322098732,57.4813
1684310336824218432,7502,1684310336823843479,2.598285098327324,4.407505722250789,57.4868
1684310336874402272,7503,1684310336874038934,2.6203315957682207,4.431473120581359,57.4669
1684310336924937024,7504,1684310336924520015,2.6495324410498142,4.4530894053168595,57.4696
1684310336977837536,7505,1684310336977449417,2.6588817029842176,4.512760437559336,57.5008
1684310337028496736,7506,1684310337028201103,2.679038896225393,4.545629574917257,57.5152
1684310337077833152,7507,1684310337077489376,2.717200044891797,4.551561472471803,57.4897
1684310337127757728,7508,1684310337127406120,2.7465259158052504,4.579825058579445,57.4706
1684310337177037952,7509,1684310337176731586,2.780005475564394,4.610227070748806,57.46
1684310337224748672,7510,1684310337224423170,2.8145130391349085,4.640609748661518,57.4547
1684310337281912768,7511,1684310337281499862,2.832002975686919,4.695694564376026,57.4678
1684310337328991104,7512,1684310337328615903,2.8835698413895443,4.703590870834887,57.4609
1684310337379015456,7513,1684310337378703355,2.9109647308359854,4.738540430087596,57.4543
1684310337429746144,7514,1684310337429456949,2.9332404442247935,4.774694548454136,57.4717
1684310337476633856,7515,1684310337476125717,2.9585168137564324,4.8063591262325644,57.4819
1684310337528514816,7516,1684310337527943134,2.9869188692537136,4.840181466192007,57.4958
1684310337576985312,7517,1684310337576561212,3.0121327282395214,4.868522394448519,57.4982
1684310337628029664,7518,1684310337627496480,3.036381094774697,4.900206307414919,57.4871
1684310337677741248,7519,1684310337677302360,3.0657694773981348,4.931793545372784,57.4715
1684310337727647232,7520,1684310337727219820,3.089997007220518,4.962369576096535,57.4655
1684310337777425888,7521,1684310337777062177,3.1171835206914693,4.986240298952907,57.4453
1684310337825685408,7522,1684310337825269222,3.126407753676176,5.039264029357582,57.4664
1684310337877687296,7523,1684310337877408742,3.1526496135047637,5.0675856214948,57.4698
1684310337927315456,7524,1684310337927005767,3.1947769104735926,5.065684993751347,57.449
1684310337978031008,7525,1684310337977336168,3.224081943219062,5.092840697150677,57.4557
1684310338027355968,7526,1684310338027085065,3.242078938172199,5.120209088083357,57.4639
1684310338077433056,7527,1684310338077087163,3.2610414254595526,5.144234493840486,57.4627
1684310338127498816,7528,1684310338127191781,3.283108759787865,5.169309776742011,57.4482
1684310338177649824,7529,1684310338177377462,3.3103161102044396,5.194288383238018,57.4479
1684310338228062560,7530,1684310338227742671,3.3185540137346834,5.2495472161099315,57.4645
1684310338284195488,7531,1684310338283841371,3.3447958739707246,5.27786880871281,57.4798
1684310338328788512,7532,1684310338328472137,3.3710585706867278,5.307298285420984,57.4807
1684310338379210272,7533,1684310338378893375,3.4024404483498074,5.3355232030153275,57.4844
1684310338429492128,7534,1684310338429123163,3.4307799890520982,5.36602189252153,57.4899
1684310338480282368,7535,1684310338479906082,3.4766372598242015,5.398407651111484,57.6424
1684310338527013152,7536,1684310338526685953,3.50705364451278,5.429975553881377,57.6339
1684310338577667776,7537,1684310338577227354,3.537407516327221,5.458219806198031,57.6394
1684310338626766496,7538,1684310338626395702,3.5698590686079115,5.488641155418009,57.6442
1684310338676762624,7539,1684310338676424980,3.5981360971927643,5.515816194936633,57.6439
1684310338726687744,7540,1684310338726368188,3.6346579886157997,5.543944436591119,57.6524
1684310338773855264,7541,1684310338773493766,3.664004693564493,5.573315907269716,57.6528
1684310338827028448,7542,1684310338826603889,3.6881280331872404,5.598352521192282,57.653
1684310338876869568,7543,1684310338876506328,3.7122513715876266,5.623389133717865,57.6361
1684310338927372288,7544,1684310338926992177,3.744661249278579,5.651594716124237,57.6426
1684310338977803040,7545,1684310338977402210,3.7739454422844574,5.677642536349595,57.6366
1684310339024776896,7546,1684310339023970842,3.804320150637068,5.706994673702866,57.638
1684310339077758464,7547,1684310339077469348,3.828506001387723,5.735354937147349,57.6392
1684310339127655008,7548,1684310339127342939,3.8517680388176814,5.769273954443634,57.6395
1684310339179407584,7549,1684310339177561521,3.879121250472963,5.802007746417075,57.6552
1684310339227382560,7550,1684310339227105140,3.8992159265326336,5.831553235184401,57.6498
1684310339283713664,7551,1684310339283363819,3.9295072841341607,5.856473837513477,57.6641
1684310339329116416,7552,1684310339328834056,3.9566521181259304,5.878128794487566,57.6668
1684310339379835872,7553,1684310339379483938,3.97662176983431,5.901026980951428,57.6658
1684310339427609856,7554,1684310339427284479,3.995625928917434,5.927268154453486,57.6678
1684310339475575392,7555,1684310339475182771,4.014713439682964,5.957940861582756,57.6452
1684310339528832160,7556,1684310339528389692,4.038920127379242,5.987409009132534,57.6395
1684310339578627648,7557,1684310339578282356,4.063231004169211,6.022416574880481,57.6484
1684310339628311680,7558,1684310339627876758,4.0854858729289845,6.0574628110043705,57.6594
1684310339678318464,7559,1684310339677969932,4.116846908815205,6.084579845890403,57.6664
1684310339727908096,7560,1684310339727452278,4.144978070922662,6.103999700862914,57.6509
1684310339777928704,7561,1684310339777536153,4.168073405046016,6.129055649507791,57.6366
1684310339827599776,7562,1684310339827341556,4.200483282096684,6.157261231914163,57.6292
1684310339877793440,7563,1684310339877492189,4.221730985271279,6.19343468779698,57.6085
1684310339924985024,7564,1684310339924681663,4.246104374236893,6.231765903998166,57.6041
1684310339977674944,7565,1684310339977355480,4.273561770794913,6.27003911556676,57.6111
1684310340025580320,7566,1684310340025204181,4.301984658464789,6.30496934056282,57.6276
1684310340077826624,7567,1684310340077479362,4.329379544709809,6.3399189012125134,57.6403
1684310340127587072,7568,1684310340127207279,4.357698244333733,6.369309708941728,57.6358
1684310340177443424,7569,1684310340177148103,4.386940758500714,6.393141763284802,57.6292
1684310340224607680,7570,1684310340224316596,4.420211935241241,6.412464943248779,57.6214
1684310340283669440,7571,1684310340283241033,4.451510457089171,6.43625832721591,57.6048
1684310340329230816,7572,1684310340328881978,4.476807659782935,6.46903079142794,57.6049
1684310340379434976,7573,1684310340379002332,4.4918873438145965,6.505320257507265,57.6019
1684310340426436288,7574,1684310340426142215,4.519282228022348,6.540269818156958,57.616
1684310340480626784,7575,1684310340480184555,4.541557934076991,6.576423937920481,57.6068
1684310340527658048,7576,1684310340527315139,4.5647991297300905,6.609235072508454,57.5936
1684310340578496224,7577,1684310340578074932,4.590075492975302,6.6408996526151896,57.5896
1684310340627470976,7578,1684310340627178430,4.618373355246149,6.669182577170432,57.5748
1684310340677334752,7579,1684310340676970720,4.640503196686041,6.697581512387842,57.5764
1684310340727634528,7580,1684310340727244377,4.664626534387935,6.722618127241731,57.5719
1684310340777360032,7581,1684310340776997804,4.683672366489191,6.7510750675573945,57.5865
1684310340827812544,7582,1684310340827176094,4.699759214941878,6.786237314809114,57.6106
1684310340877719872,7583,1684310340877306699,4.709719720238354,6.823731340933591,57.6221
1684310340927879936,7584,1684310340927543401,4.729981093958486,6.862139897886664,57.6289
1684310340977884832,7585,1684310340977526903,4.761383800883777,6.891472701448947,57.638
1684310341027957280,7586,1684310341027612447,4.787688168522436,6.923117946367711,57.6399
1684310341077793952,7587,1684310341077384710,4.811936528305523,6.954801862128079,57.6271
1684310341125009536,7588,1684310341124677658,4.838199220830575,6.984231340698898,57.616
1684310341177447232,7589,1684310341177131891,4.867483408132102,7.010279163718224,57.6011
1684310341227749312,7590,1684310341227421045,4.904804083227646,7.026201352477074,57.5836
1684310341283607136,7591,1684310341283280372,4.935262137034442,7.059985024854541,57.5693
1684310341329101920,7592,1684310341328784704,4.964671352005098,7.092680149246007,57.5663
1684310341379121184,7593,1684310341378762483,4.992003720079083,7.124306059908122,57.5772
1684310341430079328,7594,1684310341429718017,5.018349760619458,7.158167073037475,57.5808
1684310341478042880,7595,1684310341477758884,5.040771327447146,7.202076379209757,57.6116
1684310341527537056,7596,1684310341527203559,5.058955856075045,7.2394157238304615,57.6287
1684310341578822784,7597,1684310341578541040,5.0823637514258735,7.281089927069843,57.6638
1684310341625401632,7598,1684310341625071525,5.111522912688088,7.300490448717028,57.6532
1684310341677393312,7599,1684310341677051305,5.148697724041995,7.308657453395426,57.6316
1684310341727474816,7600,1684310341727064132,5.1801837793318555,7.342421791050583,57.6332
1684310341777556160,7601,1684310341777138233,5.21370500465855,7.375039574690163,57.6188
1684310341827542304,7602,1684310341827258586,5.24303086695727,7.4033031654544175,57.6086
1684310341877361280,7603,1684310341877079010,5.271328725328203,7.4315860900096595,57.5975
1684310341927568736,7604,1684310341927179574,5.296667599817738,7.466574322897941,57.602
1684310341977719776,7605,1684310341977403402,5.329160820750985,7.4992114417254925,57.602
1684310342027519168,7606,1684310342027188777,5.3534300160827115,7.532003242056817,57.6177
1684310342074858912,7607,1684310342074457406,5.3776783751673065,7.563687158282846,57.6133
1684310342127782304,7608,1684310342127386808,5.4069417242426425,7.5886270981282,57.6079
1684310342175342880,7609,1684310342174972057,5.437253912095912,7.614655586890876,57.6122
1684310342227414080,7610,1684310342226987600,5.4615022708894685,7.646339503582567,57.6146
1684310342283036320,7611,1684310342282678127,5.488813800795469,7.676857531070709,57.6174
1684310342328772992,7612,1684310342328412771,5.523300514789298,7.706132329534739,57.6144
1684310342378737408,7613,1684310342378371238,5.556759226019494,7.735426463652402,57.5972
1684310342429133216,7614,1684310342428817987,5.581090933061205,7.771541914436966,57.6028
1684310342480629760,7615,1684310342480207204,5.614320430380758,7.7886493294499815,57.5538
1684310342528563552,7616,1684310342528146982,5.6468344873865135,7.822394333314151,57.5419
1684310342578401408,7617,1684310342578048944,5.6762853729887865,7.857305224984884,57.5423
1684310342627744000,7618,1684310342627447128,5.704770767246373,7.8955591027624905,57.5421
1684310342677561792,7619,1684310342677053928,5.73522881756071,7.929342777002603,57.5581
1684310342727547936,7620,1684310342727203845,5.77380670432467,7.957432352006435,57.559
1684310342777342336,7621,1684310342776936054,5.81742041988764,7.979885834734887,57.5714
1684310342826895840,7622,1684310342826551198,5.843724783626385,8.011531081050634,57.5673
1684310342876146912,7623,1684310342875508308,5.865917133167386,8.043253669515252,57.5617
1684310342927745120,7624,1684310342927334308,5.895347179262899,8.077056677546352,57.5652
1684310342977702048,7625,1684310342977353811,5.917581206304021,8.110995032358915,57.5554
1684310343027817536,7626,1684310343027519226,5.941808724601287,8.141571066342294,57.5426
1684310343075950464,7627,1684310343075486660,5.979275257908739,8.165248442906886,57.543
1684310343125138880,7628,1684310343124826192,6.021819293848239,8.185505493544042,57.5472
1684310343177811392,7629,1684310343177438735,6.050054638297297,8.210464769974351,57.5378
1684310343227158208,7630,1684310343226841449,6.077512027113698,8.24873798340559,57.5373
1684310343283767040,7631,1684310343283466577,6.104003925749566,8.29035418247804,57.5353
1684310343328505792,7632,1684310343328088998,6.128356469445862,8.3275775173679,57.5414
1684310343379009344,7633,1684310343378700017,6.155667996965349,8.358095546718687,57.5537
1684310343432170368,7634,1684310343431814193,6.183986690768506,8.387486356310546,57.5489
1684310343477774336,7635,1684310343477394342,6.209158860554453,8.413611521013081,57.5693
1684310343525511232,7636,1684310343524939060,6.2312470243196,8.43979469081387,57.5653
1684310343578020800,7637,1684310343577576875,6.2542798381182365,8.461526991799474,57.5605
1684310343625745920,7638,1684310343625212430,6.275381671555806,8.4899452640675,57.5606
1684310343674580704,7639,1684310343674125194,6.30470753100235,8.518208856228739,57.5695
1684310343727545216,7640,1684310343727086067,6.342278250260279,8.547425650060177,57.5788
1684310343775259552,7641,1684310343774813652,6.371708294260316,8.581228660419583,57.5758
1684310343824259488,7642,1684310343823895454,6.4031109944335185,8.61056146537885,57.55
1684310343877320640,7643,1684310343876860380,6.431513037008699,8.644383810460567,57.5389
1684310343927476320,7644,1684310343927091360,6.468076590623241,8.674727825447917,57.5508
1684310343974603008,7645,1684310343974269628,6.499541802855674,8.707384281791747,57.5628
1684310344024466336,7646,1684310344023929119,6.53190999396611,8.733374101109803,57.5645
1684310344077790176,7647,1684310344077450990,6.5560749990982,8.760626484174281,57.5608
1684310344127581888,7648,1684310344127165555,6.58751937339548,8.7921750578098,57.5686
1684310344178624960,7649,1684310344178185701,6.618963747750968,8.823723630513996,57.5844
1684310344227213504,7650,1684310344226897954,6.641176933480892,8.856554102152586,57.5759
1684310344283171200,7651,1684310344282797813,6.664355609333143,8.886041588149965,57.5799
1684310344328882496,7652,1684310344328512907,6.698738131090067,8.909776970744133,57.5756
1684310344378679072,7653,1684310344378359079,6.733266514900606,8.941267539281398,57.5667
1684310344429146144,7654,1684310344428758621,6.759570873808116,8.972912787925452,57.5658
1684310344480165504,7655,1684310344479827880,6.783860902651213,9.006812472827733,57.5856
1684310344527113472,7656,1684310344526673078,6.811193265079055,9.038438386749476,57.5718
1684310344577913376,7657,1684310344577613115,6.830301602953114,9.070218979381025,57.5685
1684310344627028224,7658,1684310344626727581,6.857633966486901,9.101844892837107,57.5662
1684310344676870752,7659,1684310344676620006,6.876825652492698,9.138057020958513,57.5718
1684310344726739136,7660,1684310344726402521,6.897948322759476,9.167583177331835,57.5657
1684310344776783840,7661,1684310344776411294,6.921106160210911,9.19596277968958,57.5716
1684310344826910464,7662,1684310344826612472,6.940047799667809,9.218880305066705,57.5709
1684310344877118304,7663,1684310344876740694,6.963059775007423,9.239504722878337,57.5744
1684310344927162080,7664,1684310344926816701,6.992364791920409,9.266660431865603,57.5867
1684310344974108096,7665,1684310344973766088,7.0258234970388,9.295954568777233,57.5912
1684310345027088864,7666,1684310345026718616,7.054246373125352,9.330884797964245,57.5861
1684310345077191520,7667,1684310345076802968,7.079647752805613,9.36919668270275,57.5513
1684310345127277408,7668,1684310345126890182,7.111029614054132,9.39742160635069,57.5457
1684310345177032224,7669,1684310345176638603,7.1374173210933805,9.433498389087617,57.5564
1684310345226866688,7670,1684310345226466417,7.17406421963824,9.468273938633502,57.5659
1684310345281875328,7671,1684310345281412363,7.207627110939939,9.50310749327764,57.5756
1684310345327952256,7672,1684310345327462911,7.242197165731341,9.53681382862851,57.5545
1684310345378468736,7673,1684310345378109216,7.278802391665522,9.56937361182645,57.5533
1684310345428584576,7674,1684310345428228139,7.310163413349073,9.596490651369095,57.5647
1684310345477504256,7675,1684310345477148771,7.337495772459079,9.628116566222161,57.5788
1684310345525270080,7676,1684310345524187088,7.349512276297901,9.665571921970695,57.5663
1684310345577285792,7677,1684310345576996326,7.365494930418208,9.695194753818214,57.5605
1684310345628724160,7678,1684310345626420259,7.398029817093629,9.730047643650323,57.5701
1684310345676871808,7679,1684310345676441669,7.440719708218239,9.758059883490205,57.584
1684310345726878592,7680,1684310345726560354,7.466016898164526,9.790832350030541,57.5775
1684310345777072096,7681,1684310345776738405,7.485271096753422,9.83036812953651,57.5813
1684310345826790688,7682,1684310345826442241,7.5228418103652075,9.859584926627576,57.5776
1684310345876856864,7683,1684310345876442193,7.544950804731343,9.886875981464982,57.5665
1684310345926909696,7684,1684310345926606416,7.571255161834415,9.918521230574697,57.5529
1684310345977011936,7685,1684310345976652383,7.598525009059813,9.946823494974524,57.5505
1684310346027114336,7686,1684310346026812076,7.608318807033356,9.975454452447593,57.5429
1684310346077039360,7687,1684310346076750040,7.621196613414213,10.004027405753732,57.5439
1684310346126574560,7688,1684310346126254796,7.6422776049003005,10.03133779624477,57.5654
1684310346175556480,7689,1684310346175004005,7.66132342920173,10.059794739354402,57.574
1684310346227272096,7690,1684310346226723909,7.682487770100124,10.091536663006991,57.5658
1684310346282477216,7691,1684310346282037973,7.708792125340551,10.123181912582368,57.5634
1684310346326906208,7692,1684310346326430559,7.737214999680873,10.158112143166363,57.5676
1684310346378088672,7693,1684310346377745151,7.768638531502802,10.18855283409357,57.5475
1684310346426360928,7694,1684310346425969839,7.796998892212287,10.220159414224327,57.5507
1684310346479950624,7695,1684310346479617834,7.835555932018906,10.2471411107108,57.6069
1684310346526826112,7696,1684310346526442766,7.868028305761982,10.27867035008967,57.6168
1684310346577866688,7697,1684310346577502250,7.891290326660965,10.312589372042567,57.6156
1684310346627042720,7698,1684310346626514434,7.920637014613021,10.341960849240422,57.6146
1684310346676797696,7699,1684310346676341533,7.941801355860662,10.373702774755657,57.607
1684310346726886656,7700,1684310346726463556,7.9639936982421204,10.405425364151597,57.6064
1684310346776335520,7701,1684310346776032924,7.991346894588787,10.438159162178636,57.6103
1684310346826523296,7702,1684310346826199293,8.019665579777211,10.467549975961447,57.6221
1684310346876861056,7703,1684310346876369953,8.050964086374734,10.491343365516514,57.6211
1684310346927197088,7704,1684310346926562070,8.078171419620048,10.516321978531778,57.6171
1684310346976770080,7705,1684310346976480007,8.111567607847974,10.542292466852814,57.6176
1684310347026532544,7706,1684310347026244640,8.140914294926915,10.571663944981992,57.6199
1684310347076924544,7707,1684310347076358318,8.166190647345502,10.603328530211002,57.619
1684310347126788608,7708,1684310347126374721,8.188362151558977,10.63394323643297,57.6124
1684310347175148032,7709,1684310347174521446,8.212568825460039,10.663411389105022,57.625
1684310347227246080,7710,1684310347226477861,8.238810666603968,10.69173298869282,57.6199
1684310347282520768,7711,1684310347282061815,8.260940495878458,10.72013192763552,57.624
1684310347328832352,7712,1684310347328254938,8.284140004601795,10.750727299135178,57.6229
1684310347377981440,7713,1684310347377645492,8.30834667693125,10.780195452272892,57.6126
1684310347429129952,7714,1684310347428861379,8.330455669900402,10.80748650804162,57.6136
1684310347477074944,7715,1684310347476777076,8.351536659116391,10.834796898532659,57.6136
1684310347528980768,7716,1684310347528399705,8.374611143604852,10.858744968660176,57.6174
1684310347577865088,7717,1684310347577408552,8.403874480281956,10.883684913162142,57.6148
1684310347626676512,7718,1684310347626346826,8.435193824057933,10.908586188219488,57.6266
1684310347676536768,7719,1684310347676134347,8.459379659849219,10.936946457251906,57.6096
1684310347723821056,7720,1684310347723361968,8.479620181024075,10.974247134756297,57.6171
1684310347777106752,7721,1684310347776500463,8.49971484352136,11.003792628180236,57.6187
1684310347826964928,7722,1684310347826213359,8.52184467180632,11.032191566657275,57.6157
1684310347876547200,7723,1684310347876162767,8.538855324790347,11.061795065179467,57.6102
1684310347926939648,7724,1684310347926482439,8.567174007883295,11.091185878962278,57.6077
1684310347976811200,7725,1684310347976417064,8.59253370645456,11.127281998749822,57.6053
1684310348027188288,7726,1684310348026788234,8.623957235948183,11.157722691074014,57.6206
1684310348077142432,7727,1684310348076747417,8.652275918691885,11.187113504856825,57.6076
1684310348126863360,7728,1684310348126436948,8.68262976850383,11.215357765555382,57.6038
1684310348176885984,7729,1684310348176484584,8.715164650348015,11.250210657715797,57.6046
1684310348226693760,7730,1684310348226293802,8.745560175797436,11.280670686159283,57.6234
1684310348282468384,7731,1684310348282103776,8.767752515268512,11.312393275555223,57.6233
1684310348328266624,7732,1684310348327914953,8.789819832134526,11.337468565441668,57.6202
1684310348378599776,7733,1684310348378209829,8.812033009948209,11.370299038942903,57.6231
1684310348428811392,7734,1684310348428481817,8.839365364226978,11.401924955658615,57.6193
1684310348479937280,7735,1684310348479591369,8.862710730696563,11.440275511704385,57.5875
1684310348527591456,7736,1684310348527224779,8.894113420450594,11.469608321785927,57.5883
1684310348577678560,7737,1684310348577254772,8.919327258015983,11.497949257027358,57.5989
1684310348627034016,7738,1684310348626481056,8.946555424132384,11.524035755544901,57.5984
1684310348673851936,7739,1684310348673465251,8.975860435748473,11.551191467791796,57.5893
1684310348726891392,7740,1684310348726390838,9.003067764395382,11.576170082669705,57.5809
1684310348777149248,7741,1684310348776721954,9.032497798325494,11.609973096754402,57.6005
1684310348826932928,7742,1684310348826290369,9.059746801271103,11.637167478445917,57.597
1684310348877410976,7743,1684310348876749515,9.090017302834895,11.660980205517262,57.6057
1684310348924334880,7744,1684310348924001455,9.113029271829873,11.6816046256572,57.6125
1684310348977114752,7745,1684310348976519346,9.140194926818367,11.704367473721504,57.6252
1684310349026729280,7746,1684310349026343107,9.16431824688334,11.729404094163328,57.6058
1684310349074194336,7747,1684310349073865413,9.18548258265946,11.761146019212902,57.6036
1684310349127301664,7748,1684310349126857519,9.218941278173588,11.790440159849823,57.5922
1684310349177434400,7749,1684310349177013874,9.251309458224569,11.816429983824492,57.5854
1684310349226613504,7750,1684310349226296424,9.281788330583367,11.851321547757834,57.5854
1684310349279589344,7751,1684310349279288530,9.315309536235873,11.883939338847995,57.5932
1684310349328555776,7752,1684310349328237295,9.343669892055914,11.915545920375735,57.5937
1684310349376365920,7753,1684310349375996828,9.378135750535876,11.943712843582034,57.581
1684310349430049440,7754,1684310349429681777,9.415602269000374,11.967390226665884,57.5816
1684310349476920608,7755,1684310349476100921,9.44280959747266,11.992368842475116,57.5747
1684310349529970592,7756,1684310349529060125,9.475115265056957,12.015035016462207,57.5762
1684310349578486368,7757,1684310349578048944,9.509539449878503,12.040986171457916,57.5838
1684310349628246912,7758,1684310349627949714,9.538886131369509,12.070357651915401,57.5925
1684310349677838016,7759,1684310349677380323,9.563009452889673,12.095394272357225,57.5827
1684310349727202368,7760,1684310349726853609,9.589251289260574,12.123715873807669,57.5859
1684310349777737120,7761,1684310349777320384,9.615493125282228,12.152037475258112,57.5953
1684310349827706784,7762,1684310349827305078,9.642783802119084,12.181447625160217,57.5916
1684310349878556480,7763,1684310349878050088,9.67215132038109,12.211926989257336,57.5809
1684310349928017056,7764,1684310349927561283,9.697385991283227,12.241375809069723,57.5771
1684310349974764384,7765,1684310349974475622,9.722537314519286,12.266393095254898,57.565
1684310350027694048,7766,1684310350027351617,9.745653466554359,12.292556933593005,57.5419
1684310350078003168,7767,1684310350077550411,9.76879045838723,12.319828656502068,57.5372
1684310350127593472,7768,1684310350127163887,9.79404596623499,12.350385359954089,57.5397
1684310350178127136,7769,1684310350177683115,9.812084617617074,12.379969524219632,57.5523
1684310350227411456,7770,1684310350227140665,9.827963077055756,12.404052939731628,57.5539
1684310350283455712,7771,1684310350283053874,9.843883211025968,12.43035212252289,57.5575
1684310350328702976,7772,1684310350328248977,9.872076865751296,12.453095636330545,57.5648
1684310350375767392,7773,1684310350375422000,9.89718651381554,12.475897155236453,57.5739
1684310350426345088,7774,1684310350426005601,9.922358672192786,12.502022325061262,57.5784
1684310350480410848,7775,1684310350480119228,9.954789359879214,12.531335801351815,57.6479
1684310350527596544,7776,1684310350527207612,9.978072211612016,12.566362708806992,57.6495
1684310350577989152,7777,1684310350577710390,9.99925738183083,12.599212518427521,57.6486
1684310350629586592,7778,1684310350629072189,10.020567576517351,12.638709630817175,57.6621
1684310350676963904,7779,1684310350676633358,10.044857591565233,12.672609319444746,57.6835
1684310350727036480,7780,1684310350726700067,10.068015419645235,12.700988926459104,57.659
1684310350774116000,7781,1684310350773813009,10.094319765688851,12.732634178828448,57.6463
1684310350827110976,7782,1684310350826821327,10.115609120111912,12.771023406181484,57.6487
1684310350877526944,7783,1684310350877118349,10.137947317853104,12.810501183383167,57.6629
1684310350927503776,7784,1684310350927069664,10.158271181804594,12.852233397774398,57.6618
1684310350977485792,7785,1684310350977209806,10.182707057974767,12.893888270948082,57.6747
1684310351028139584,7786,1684310351027221918,10.19776588503737,12.929069857578725,57.6466
1684310351078570752,7787,1684310351078131675,10.213852716842666,12.964232109021395,57.6459
1684310351127833216,7788,1684310351127364397,10.241185066814069,12.99585802713409,57.6546
1684310351177672640,7789,1684310351177210807,10.268496576929465,13.026376061141491,57.6621
1684310351228022496,7790,1684310351227266073,10.292703241982963,13.055844217538834,57.6568
1684310351283731456,7791,1684310351283407926,10.312922921788413,13.092037013266236,57.6522
1684310351327656160,7792,1684310351327051401,10.341304109373596,13.124751479364932,57.6406
1684310351377765088,7793,1684310351377306222,10.370734136202373,13.158554495312274,57.642
1684310351429904000,7794,1684310351429445743,10.398003972601146,13.18685676343739,57.6503
1684310351477291520,7795,1684310351476865053,10.418181976303458,13.220833792816848,57.6531
1684310351527285728,7796,1684310351526916027,10.439367146114819,13.2536836033687,57.6553
1684310351580147360,7797,1684310351579685688,10.456481977831572,13.288826519623399,57.6586
1684310351627420064,7798,1684310351626831769,10.469484800007194,13.324046776164323,57.6731
1684310351677138336,7799,1684310351676707744,10.488509778049774,13.351395838428289,57.6794
1684310351727257920,7800,1684310351726873636,10.509632434579544,13.380921998992562,57.687
1684310351774431232,7801,1684310351774078369,10.53480459068669,13.40704716835171,57.6888
1684310351824152192,7802,1684310351823765039,10.560060095158406,13.437603872735053,57.6979
1684310351874630752,7803,1684310351874306917,10.578098745376337,13.467188037000597,57.6878
1684310351924495168,7804,1684310351924174308,10.606375744508114,13.49436308676377,57.6776
1684310351977582592,7805,1684310351977225542,10.640820761327632,13.52142212772742,57.6923
1684310352024794592,7806,1684310352024478435,10.661964255850762,13.552056171931326,57.6928
1684310352077757760,7807,1684310352077418088,10.6861084078555,13.578200676478446,57.6745
1684310352127729856,7808,1684310352127414941,10.709328743687365,13.609903934877366,57.6579
1684310352177545792,7809,1684310352177209138,10.733660431520548,13.646019392181188,57.6496
1684310352227478464,7810,1684310352227068185,10.761979105707724,13.675410209223628,57.6454
1684310352283260832,7811,1684310352282904624,10.79554197867401,13.710243769455701,57.6546
1684310352328485920,7812,1684310352328040361,10.82904234121088,13.741753679234535,57.6579
1684310352378472640,7813,1684310352378163337,10.865460013912525,13.764342517126352,57.6625
1684310352428933440,7814,1684310352428630590,10.889666676754132,13.793810673523694,57.6591
1684310352477455424,7815,1684310352477006673,10.899439629807603,13.821333749685436,57.5588
1684310352527671968,7816,1684310352527215003,10.917624137713574,13.858673098497093,57.5765
1684310352577837632,7817,1684310352577528715,10.947977979434654,13.88691736292094,57.5601
1684310352627497920,7818,1684310352627105712,10.979443171818275,13.91957382671535,57.5473
1684310352674403712,7819,1684310352674036979,11.005872536916286,13.957866381853819,57.5413
1684310352724505088,7820,1684310352724172353,11.040505087643396,13.99489637510851,57.5451
1684310352777315712,7821,1684310352776975393,11.077089455269743,14.026348281186074,57.5602
1684310352827281184,7822,1684310352826910495,11.110485629586037,14.052318775095046,57.5519
1684310352875510848,7823,1684310352875016689,11.146778278052807,14.068260311614722,57.5431
1684310352927248224,7824,1684310352926886558,11.17413145879982,14.100994114764035,57.541
1684310352977337952,7825,1684310352976859569,11.201442967751063,14.131512150168419,57.545
1684310353027278112,7826,1684310353026920557,11.22460079024313,14.1598917581141,57.561
1684310353077027616,7827,1684310353076736927,11.243584091949742,14.18502505403012,57.5545
1684310353126904800,7828,1684310353126510143,11.261560225742869,14.211285568308085,57.5419
1684310353176900480,7829,1684310353176593303,11.285787725704722,14.241861608810723,57.5332
1684310353226985568,7830,1684310353226694822,11.315196912561078,14.274556742515415,57.5317
1684310353283779232,7831,1684310353282699823,11.34865559724858,14.303850886411965,57.5331
1684310353325373536,7832,1684310353325039625,11.381044604233466,14.33094859821722,57.5283
1684310353378703296,7833,1684310353378431320,11.415531293314416,14.36022340785712,57.5337
1684310353430760416,7834,1684310353430365324,11.450941797345877,14.383939465042204,57.5345
1684310353477891808,7835,1684310353477563619,11.484421318629757,14.414341493044049,57.5327
1684310353527686272,7836,1684310353527407884,11.51177449937677,14.4470752957277,57.5341
1684310353578211360,7837,1684310353577895164,11.546240349649452,14.475242222193629,57.5347
1684310353627709440,7838,1684310353627305984,11.588992731121834,14.506578120868653,57.5517
1684310353674456288,7839,1684310353674166440,11.623583603592124,14.541392348241061,57.5427
1684310353724572160,7840,1684310353724186182,11.663293651654385,14.575002018827945,57.5569
1684310353777559840,7841,1684310353777192115,11.69576600601431,14.606531265657395,57.5714
1684310353827588032,7842,1684310353827218294,11.726099007646553,14.633667647838593,57.5975
1684310353877568512,7843,1684310353877194643,11.753264654777013,14.656430500093848,57.582
1684310353927956032,7844,1684310353927616596,11.782590490125585,14.684694099240005,57.565
1684310353976022752,7845,1684310353975232362,11.822175514767878,14.71165646892041,57.5667
1684310354025119616,7846,1684310354024790048,11.850515022058971,14.742155171465129,57.5531
1684310354075000896,7847,1684310354074680328,11.885946362803224,14.766979112755507,57.542
1684310354128787712,7848,1684310354127605676,11.921440213511232,14.795126704964787,57.5572
1684310354177827712,7849,1684310354177443742,11.94663320062682,14.822359760291874,57.5633
1684310354227527488,7850,1684310354227227926,11.985106874199118,14.844909930601716,57.5618
1684310354283440064,7851,1684310354283025979,12.017579228617251,14.876439177896827,57.5571
1684310354329295296,7852,1684310354328937053,12.048919395369012,14.902448342181742,57.5614
1684310354378924992,7853,1684310354378473997,12.074112382018939,14.92968139750883,57.5706
1684310354429199168,7854,1684310354428735971,12.095110012276564,14.952560257632285,57.571
1684310354480816512,7855,1684310354480382442,12.120997608581092,14.962047842796892,57.5576
1684310354527452224,7856,1684310354527035474,12.14822576456936,14.988134345971048,57.5502
1684310354578227584,7857,1684310354577866077,12.174425918376073,15.014240183867514,57.5479
1684310354627502752,7858,1684310354627103567,12.210801910376176,15.034613257274032,57.5536
1684310354677523232,7859,1684310354677098512,12.246233248559292,15.059437199030071,57.5538
1684310354727899232,7860,1684310354727407693,12.280699096038006,15.087604126892984,57.5574
1684310354777411744,7861,1684310354777090787,12.311032095574774,15.114740509074181,57.5275
1684310354824630144,7862,1684310354824287414,12.348581951286178,15.142849433235824,57.5361
1684310354877657184,7863,1684310354877266645,12.378935786546208,15.171093699522316,57.5546
1684310354924603424,7864,1684310354924292325,12.4021561164991,15.20279695931822,57.5582
1684310354977891104,7865,1684310354977400064,12.428377106611151,15.23001068085432,57.558
1684310355027981312,7866,1684310355027641534,12.459758944809437,15.258235612418503,57.5687
1684310355077332736,7867,1684310355076975345,12.492106274934486,15.283117559272796,57.566
1684310355127622496,7868,1684310355127216815,12.526551284187008,15.310176603961736,57.5834
1684310355177227136,7869,1684310355176951646,12.567080959561281,15.33268810622394,57.5945
1684310355227349152,7870,1684310355227065324,12.6034569501644,15.353061180561781,57.5926
1684310355280340768,7871,1684310355280045270,12.632782785163727,15.381324782036245,57.579
1684310355327753376,7872,1684310355327440023,12.669304634968285,15.40945304138586,57.5641
1684310355379134464,7873,1684310355378806829,12.686356948455796,15.441272309515625,57.5395
1684310355429871392,7874,1684310355429506063,12.708445091499016,15.467455485835671,57.5384
1684310355476271232,7875,1684310355475987195,12.724448565859348,15.498186205513775,57.5415
1684310355524986720,7876,1684310355524591207,12.75071122776717,15.527615694794804,57.5394
1684310355578401056,7877,1684310355577851057,12.781065062736161,15.555859962012619,57.5395
1684310355627469056,7878,1684310355627115488,12.80736939975759,15.587505217641592,57.5459
1684310355674376448,7879,1684310355673996448,12.829624236153904,15.622551463544369,57.5608
1684310355724347520,7880,1684310355724031925,12.85481722158147,15.64978452026844,57.5771
1684310355777176416,7881,1684310355776865959,12.880954862048384,15.672566708177328,57.5932
1684310355827458528,7882,1684310355827044248,12.901994162821211,15.697661336977035,57.6009
1684310355877423104,7883,1684310355877110242,12.92309597611893,15.726079615298659,57.5961
1684310355927276416,7884,1684310355926964044,12.943169784673955,15.754517229273915,57.5996
1684310355977658240,7885,1684310355977336168,12.965445458947215,15.790671358350664,57.5961
1684310356025025888,7886,1684310356024302005,12.991749793873169,15.822316615842283,57.5968
1684310356074716160,7887,1684310356074318170,13.017005291127134,15.852873323019594,57.5741
1684310356127591520,7888,1684310356127242088,13.04230246093357,15.885645797941834,57.5683
1684310356177591968,7889,1684310356177194595,13.066550791845657,15.917329723015428,57.5512
1684310356227508256,7890,1684310356227057933,13.099023140443023,15.948858972638845,57.5456
1684310356283803840,7891,1684310356282983064,13.136656339396723,15.981399431359023,57.5479
1684310356325929408,7892,1684310356325587034,13.167156031937338,16.017398884054273,57.5375
1684310356379282752,7893,1684310356378715753,13.197593213408254,16.050074685830623,57.5374
1684310356426779328,7894,1684310356426309823,13.232246591185685,16.08821256645024,57.5652
1684310356480518368,7895,1684310356480165004,13.280222323373891,16.12388333166018,57.6058
1684310356527839424,7896,1684310356527227640,13.302477159362752,16.158929577097297,57.6066
1684310356578690656,7897,1684310356578241825,13.327795165183488,16.19280993565917,57.5965
1684310356627567552,7898,1684310356627224206,13.358274021127727,16.22770150518045,57.593
1684310356674598656,7899,1684310356674309015,13.389843388751615,16.265897389501333,57.6049
1684310356727621152,7900,1684310356727320909,13.417175723880064,16.29752331227064,57.5971
1684310356778065376,7901,1684310356777434110,13.4465223926818,16.326894798781723,57.5966
1684310356827811584,7902,1684310356827414989,13.47181955963606,16.359667274635285,57.5842
1684310356877469952,7903,1684310356877140045,13.499131058750208,16.390185312833637,57.592
1684310356927650144,7904,1684310356927322387,13.52132338291267,16.421907908748835,57.5847
1684310356979428960,7905,1684310356977738380,13.541459700558335,16.453669173642993,57.5772
1684310357027500032,7906,1684310357027199268,13.564680027717259,16.48537243483588,57.5688
1684310357077460064,7907,1684310357077038288,13.589893847354688,16.51371337659657,57.5725
1684310357127191936,7908,1684310357126842260,13.614017154206522,16.538750001229346,57.5697
1684310357177170080,7909,1684310357176830291,13.637112457770854,16.563805961515754,57.5809
1684310357224241056,7910,1684310357223875045,13.658235102833714,16.593332124873996,57.5819
