%time,field.header.seq,field.header.stamp,x,y,z
1684378341287103480,82,1684378341286787986,0.0,0.0,57.3389
1684378341338045368,83,1684378341337561845,0.0,0.0,57.3389
1684378341404067096,84,1684378341403782367,0.032485987816471606,0.08694276958703995,57.2444
1684378341439231736,85,1684378341438856124,0.032485987816471606,0.08694276958703995,57.2444
1684378341486253816,86,1684378341485974550,0.032485987816471606,0.08694276958703995,57.2444
1684378341539365880,87,1684378341538945198,0.032485987816471606,0.08694276958703995,57.2444
1684378341587397112,88,1684378341587100267,0.032485987816471606,0.08694276958703995,57.2444
1684378341637716760,89,1684378341637357234,0.032485987816471606,0.08694276958703995,57.2444
1684378341685148216,90,1684378341684714794,0.032485987816471606,0.08694276958703995,57.2444
1684378341738155928,91,1684378341737806797,0.032485987816471606,0.08694276958703995,57.2444
1684378341784847576,92,1684378341784553050,0.032485987816471606,0.08694276958703995,57.2444
1684378341837736600,93,1684378341837455272,0.032485987816471606,0.08694276958703995,57.2444
1684378341887761784,94,1684378341887417078,0.032485987816471606,0.08694276958703995,57.2444
1684378341937887800,95,1684378341937539339,0.032485987816471606,0.08694276958703995,57.2444
1684378341988077592,96,1684378341987692117,0.032485987816471606,0.08694276958703995,57.2444
1684378342037844664,97,1684378342037423849,0.032485987816471606,0.08694276958703995,57.2444
1684378342087742776,98,1684378342087383508,0.032485987816471606,0.08694276958703995,57.2444
1684378342137848152,99,1684378342137494802,0.032485987816471606,0.08694276958703995,57.2444
1684378342187797560,100,1684378342187440156,0.032485987816471606,0.08694276958703995,57.2444
1684378342237837624,101,1684378342237418651,0.032485987816471606,0.08694276958703995,57.2444
1684378342287910040,102,1684378342287548303,0.032485987816471606,0.08694276958703995,57.2444
1684378342338128600,103,1684378342337512493,0.032485987816471606,0.08694276958703995,57.2444
1684378342403812408,104,1684378342403440237,0.03904287493787706,0.16218217834830284,57.1584
1684378342439585848,105,1684378342439086198,0.03904287493787706,0.16218217834830284,57.1584
1684378342489124824,106,1684378342488839387,0.03904287493787706,0.16218217834830284,57.1584
1684378342536131832,107,1684378342535827159,0.03904287493787706,0.16218217834830284,57.1584
1684378342588388760,108,1684378342587628841,0.03904287493787706,0.16218217834830284,57.1584
1684378342634900920,109,1684378342634601354,0.03904287493787706,0.16218217834830284,57.1584
1684378342687934872,110,1684378342687544345,0.03904287493787706,0.16218217834830284,57.1584
1684378342736717304,111,1684378342736201763,0.03904287493787706,0.16218217834830284,57.1584
1684378342788008632,112,1684378342787478923,0.03904287493787706,0.16218217834830284,57.1584
1684378342837846648,113,1684378342837551593,0.03904287493787706,0.16218217834830284,57.1584
1684378342887901368,114,1684378342887521982,0.03904287493787706,0.16218217834830284,57.1584
1684378342935241944,115,1684378342934924840,0.03904287493787706,0.16218217834830284,57.1584
1684378342987863672,116,1684378342987438678,0.03904287493787706,0.16218217834830284,57.1584
1684378343037791384,117,1684378343037516117,0.03904287493787706,0.16218217834830284,57.1584
1684378343087859448,118,1684378343087486267,0.03904287493787706,0.16218217834830284,57.1584
1684378343137671864,119,1684378343137398958,0.03904287493787706,0.16218217834830284,57.1584
1684378343187772696,120,1684378343187346220,0.03904287493787706,0.16218217834830284,57.1584
1684378343238084376,121,1684378343237485647,0.03904287493787706,0.16218217834830284,57.1584
1684378343288107736,122,1684378343287457704,0.03904287493787706,0.16218217834830284,57.1584
1684378343337793848,123,1684378343337493181,0.03904287493787706,0.16218217834830284,57.1584
1684378343404911608,124,1684378343404545307,0.04723901575198397,0.21522524766623974,57.0386
1684378343439455288,125,1684378343438951969,0.04723901575198397,0.21522524766623974,57.0386
1684378343489184920,126,1684378343488865137,0.04723901575198397,0.21522524766623974,57.0386
1684378343539342904,127,1684378343538977861,0.04723901575198397,0.21522524766623974,57.0386
1684378343587539768,128,1684378343587222576,0.04723901575198397,0.21522524766623974,57.0386
1684378343637736568,129,1684378343637350082,0.04723901575198397,0.21522524766623974,57.0386
1684378343684844824,130,1684378343684562444,0.04723901575198397,0.21522524766623974,57.0386
1684378343737797624,131,1684378343737424612,0.04723901575198397,0.21522524766623974,57.0386
1684378343784968408,132,1684378343784596681,0.04723901575198397,0.21522524766623974,57.0386
1684378343837643320,133,1684378343837285041,0.04723901575198397,0.21522524766623974,57.0386
1684378343885139832,134,1684378343884761333,0.04723901575198397,0.21522524766623974,57.0386
1684378343935064600,135,1684378343934663057,0.04723901575198397,0.21522524766623974,57.0386
1684378343987375704,136,1684378343987084627,0.04723901575198397,0.21522524766623974,57.0386
1684378344034613048,137,1684378344034288167,0.04723901575198397,0.21522524766623974,57.0386
1684378344088074200,138,1684378344087697267,0.04723901575198397,0.21522524766623974,57.0386
1684378344137830616,139,1684378344137468576,0.04723901575198397,0.21522524766623974,57.0386
1684378344187507928,140,1684378344187199831,0.04723901575198397,0.21522524766623974,57.0386
1684378344237561016,141,1684378344237160444,0.04723901575198397,0.21522524766623974,57.0386
1684378344287465368,142,1684378344287075519,0.04723901575198397,0.21522524766623974,57.0386
1684378344337713304,143,1684378344337356805,0.04723901575198397,0.21522524766623974,57.0386
1684378344405153528,144,1684378344404330015,0.043779837200418115,0.3593661147169769,57.0033
1684378344436639352,145,1684378344436224460,0.043779837200418115,0.3593661147169769,57.0033
1684378344489030040,146,1684378344488722324,0.043779837200418115,0.3593661147169769,57.0033
1684378344539309464,147,1684378344538838863,0.043779837200418115,0.3593661147169769,57.0033
1684378344587742328,148,1684378344587427139,0.043779837200418115,0.3593661147169769,57.0033
1684378344634960792,149,1684378344634512901,0.043779837200418115,0.3593661147169769,57.0033
1684378344687942232,150,1684378344687591075,0.043779837200418115,0.3593661147169769,57.0033
1684378344735315896,151,1684378344735017776,0.043779837200418115,0.3593661147169769,57.0033
1684378344785730872,152,1684378344785210371,0.043779837200418115,0.3593661147169769,57.0033
1684378344837821112,153,1684378344837503433,0.043779837200418115,0.3593661147169769,57.0033
1684378344887729144,154,1684378344887439012,0.043779837200418115,0.3593661147169769,57.0033
1684378344938426136,155,1684378344938044309,0.043779837200418115,0.3593661147169769,57.0033
1684378344984995608,156,1684378344984698057,0.043779837200418115,0.3593661147169769,57.0033
1684378345037909816,157,1684378345037386655,0.043779837200418115,0.3593661147169769,57.0033
1684378345084994392,158,1684378345084608793,0.043779837200418115,0.3593661147169769,57.0033
1684378345137551576,159,1684378345137276649,0.043779837200418115,0.3593661147169769,57.0033
1684378345184822488,160,1684378345184475421,0.043779837200418115,0.3593661147169769,57.0033
1684378345238477592,161,1684378345238081693,0.043779837200418115,0.3593661147169769,57.0033
1684378345289026456,162,1684378345288578510,0.043779837200418115,0.3593661147169769,57.0033
1684378345337958232,163,1684378345337582826,0.043779837200418115,0.3593661147169769,57.0033
1684378345404837592,164,1684378345404408931,0.07560602982994169,0.35655098175629973,56.9526
1684378345439380824,165,1684378345438958168,0.07560602982994169,0.35655098175629973,56.9526
1684378345489735544,166,1684378345489288091,0.07560602982994169,0.35655098175629973,56.9526
1684378345539537752,167,1684378345539044141,0.07560602982994169,0.35655098175629973,56.9526
1684378345588287576,168,1684378345588004350,0.07560602982994169,0.35655098175629973,56.9526
1684378345638133432,169,1684378345637843132,0.07560602982994169,0.35655098175629973,56.9526
1684378345689128344,170,1684378345687933206,0.07560602982994169,0.35655098175629973,56.9526
1684378345735164248,171,1684378345734871149,0.07560602982994169,0.35655098175629973,56.9526
1684378345787928504,172,1684378345787574768,0.07560602982994169,0.35655098175629973,56.9526
1684378345838219544,173,1684378345837795734,0.07560602982994169,0.35655098175629973,56.9526
1684378345885252504,174,1684378345884922027,0.07560602982994169,0.35655098175629973,56.9526
1684378345935337816,175,1684378345935016870,0.07560602982994169,0.35655098175629973,56.9526
1684378345988097848,176,1684378345987746715,0.07560602982994169,0.35655098175629973,56.9526
1684378346038114520,177,1684378346037779569,0.07560602982994169,0.35655098175629973,56.9526
1684378346087996856,178,1684378346087603092,0.07560602982994169,0.35655098175629973,56.9526
1684378346138775576,179,1684378346137679576,0.07560602982994169,0.35655098175629973,56.9526
1684378346188075096,180,1684378346187577247,0.07560602982994169,0.35655098175629973,56.9526
1684378346235125720,181,1684378346234738826,0.07560602982994169,0.35655098175629973,56.9526
1684378346285063896,182,1684378346284701347,0.07560602982994169,0.35655098175629973,56.9526
1684378346337900952,183,1684378346337488889,0.07560602982994169,0.35655098175629973,56.9526
1684378346405109624,184,1684378346404844999,0.09169973281677812,0.3374076117761433,56.8701
1684378346436493528,185,1684378346436143875,0.09169973281677812,0.3374076117761433,56.8701
1684378346486698840,186,1684378346486107826,0.09169973281677812,0.3374076117761433,56.8701
1684378346543471288,187,1684378346542942762,0.09169973281677812,0.3374076117761433,56.8701
1684378346586853912,188,1684378346586480855,0.09169973281677812,0.3374076117761433,56.8701
1684378346638479800,189,1684378346637884855,0.09169973281677812,0.3374076117761433,56.8701
1684378346689301528,190,1684378346688795566,0.09169973281677812,0.3374076117761433,56.8701
1684378346737840984,191,1684378346737434148,0.09169973281677812,0.3374076117761433,56.8701
1684378346787645272,192,1684378346787360429,0.09169973281677812,0.3374076117761433,56.8701
1684378346837806648,193,1684378346837471246,0.09169973281677812,0.3374076117761433,56.8701
1684378346885065048,194,1684378346884767770,0.09169973281677812,0.3374076117761433,56.8701
1684378346937938136,195,1684378346937556982,0.09169973281677812,0.3374076117761433,56.8701
1684378346988039768,196,1684378346987688302,0.09169973281677812,0.3374076117761433,56.8701
1684378347037989208,197,1684378347037607908,0.09169973281677812,0.3374076117761433,56.8701
1684378347085421272,198,1684378347085084438,0.09169973281677812,0.3374076117761433,56.8701
1684378347138089048,199,1684378347137726306,0.09169973281677812,0.3374076117761433,56.8701
1684378347187699384,200,1684378347187403678,0.09169973281677812,0.3374076117761433,56.8701
1684378347235316344,201,1684378347234961509,0.09169973281677812,0.3374076117761433,56.8701
1684378347287865784,202,1684378347287480592,0.09169973281677812,0.3374076117761433,56.8701
1684378347337985848,203,1684378347337547063,0.09169973281677812,0.3374076117761433,56.8701
1684378347404343960,204,1684378347404076814,0.1358688627369702,0.2800548393279314,56.8481
1684378347439397560,205,1684378347439123630,0.1358688627369702,0.2800548393279314,56.8481
1684378347489211032,206,1684378347488900423,0.1358688627369702,0.2800548393279314,56.8481
1684378347539618488,207,1684378347539317846,0.1358688627369702,0.2800548393279314,56.8481
1684378347586233528,208,1684378347585871458,0.1358688627369702,0.2800548393279314,56.8481
1684378347638215864,209,1684378347637888669,0.1358688627369702,0.2800548393279314,56.8481
1684378347688021272,210,1684378347687693595,0.1358688627369702,0.2800548393279314,56.8481
1684378347735500632,211,1684378347735032081,0.1358688627369702,0.2800548393279314,56.8481
1684378347788139032,212,1684378347787834644,0.1358688627369702,0.2800548393279314,56.8481
1684378347838030904,213,1684378347837673902,0.1358688627369702,0.2800548393279314,56.8481
1684378347888018040,214,1684378347887542963,0.1358688627369702,0.2800548393279314,56.8481
1684378347937806040,215,1684378347937463521,0.1358688627369702,0.2800548393279314,56.8481
1684378347985264280,216,1684378347984949350,0.1358688627369702,0.2800548393279314,56.8481
1684378348037902616,217,1684378348037544965,0.1358688627369702,0.2800548393279314,56.8481
1684378348085308216,218,1684378348085017681,0.1358688627369702,0.2800548393279314,56.8481
1684378348135093112,219,1684378348134685277,0.1358688627369702,0.2800548393279314,56.8481
1684378348187788408,220,1684378348187365770,0.1358688627369702,0.2800548393279314,56.8481
1684378348238126200,221,1684378348237707853,0.1358688627369702,0.2800548393279314,56.8481
1684378348285045720,222,1684378348284734010,0.1358688627369702,0.2800548393279314,56.8481
1684378348338121944,223,1684378348337759017,0.1358688627369702,0.2800548393279314,56.8481
1684378348405059416,224,1684378348404617547,0.16248570661991835,0.16429358767345548,56.7736
1684378348437104952,225,1684378348436758995,0.16248570661991835,0.16429358767345548,56.7736
1684378348489415128,226,1684378348489052534,0.16248570661991835,0.16429358767345548,56.7736
1684378348538326840,227,1684378348536438941,0.16248570661991835,0.16429358767345548,56.7736
1684378348588134168,228,1684378348587739944,0.16248570661991835,0.16429358767345548,56.7736
1684378348635144280,229,1684378348634828090,0.16248570661991835,0.16429358767345548,56.7736
1684378348688099256,230,1684378348687749385,0.16248570661991835,0.16429358767345548,56.7736
1684378348735029624,231,1684378348734674453,0.16248570661991835,0.16429358767345548,56.7736
1684378348788316888,232,1684378348787847995,0.16248570661991835,0.16429358767345548,56.7736
1684378348838228280,233,1684378348837793588,0.16248570661991835,0.16429358767345548,56.7736
1684378348885597048,234,1684378348885143995,0.16248570661991835,0.16429358767345548,56.7736
1684378348938173240,235,1684378348937855958,0.16248570661991835,0.16429358767345548,56.7736
1684378348988590552,236,1684378348987609148,0.16248570661991835,0.16429358767345548,56.7736
1684378349037860920,237,1684378349037529945,0.16248570661991835,0.16429358767345548,56.7736
1684378349087987832,238,1684378349087682962,0.16248570661991835,0.16429358767345548,56.7736
1684378349137906296,239,1684378349137585163,0.16248570661991835,0.16429358767345548,56.7736
1684378349187829912,240,1684378349187521934,0.16248570661991835,0.16429358767345548,56.7736
1684378349235135480,241,1684378349234797239,0.16248570661991835,0.16429358767345548,56.7736
1684378349285002360,242,1684378349284683227,0.16248570661991835,0.16429358767345548,56.7736
1684378349335742488,243,1684378349335240602,0.16248570661991835,0.16429358767345548,56.7736
1684378349405195000,244,1684378349404710769,0.18011447950266302,0.11741446051746607,56.7472
1684378349440225016,245,1684378349439775705,0.18011447950266302,0.11741446051746607,56.7472
1684378349489598712,246,1684378349489156961,0.18011447950266302,0.11741446051746607,56.7472
1684378349539524056,247,1684378349539196729,0.18011447950266302,0.11741446051746607,56.7472
1684378349588651864,248,1684378349588253974,0.18011447950266302,0.11741446051746607,56.7472
1684378349639002008,249,1684378349638603687,0.18011447950266302,0.11741446051746607,56.7472
1684378349686723608,250,1684378349686267137,0.18011447950266302,0.11741446051746607,56.7472
1684378349738798776,251,1684378349738348484,0.18011447950266302,0.11741446051746607,56.7472
1684378349787885496,252,1684378349787505865,0.18011447950266302,0.11741446051746607,56.7472
1684378349839002872,253,1684378349838504791,0.18011447950266302,0.11741446051746607,56.7472
1684378349887964216,254,1684378349887561321,0.18011447950266302,0.11741446051746607,56.7472
1684378349938854232,255,1684378349938500881,0.18011447950266302,0.11741446051746607,56.7472
1684378349988924312,256,1684378349988437175,0.18011447950266302,0.11741446051746607,56.7472
1684378350036651288,257,1684378350036145925,0.18011447950266302,0.11741446051746607,56.7472
1684378350085022424,258,1684378350084727525,0.18011447950266302,0.11741446051746607,56.7472
1684378350139214648,259,1684378350138821125,0.18011447950266302,0.11741446051746607,56.7472
1684378350189607096,260,1684378350189168214,0.18011447950266302,0.11741446051746607,56.7472
1684378350236360472,261,1684378350235877275,0.18011447950266302,0.11741446051746607,56.7472
1684378350289493048,262,1684378350289043188,0.18011447950266302,0.11741446051746607,56.7472
1684378350335133528,263,1684378350334700107,0.18011447950266302,0.11741446051746607,56.7472
1684378350404228664,264,1684378350403933763,0.21281595033360645,-0.0028943303041160107,56.6766
1684378350439021144,265,1684378350438716411,0.21281595033360645,-0.0028943303041160107,56.6766
1684378350486399128,266,1684378350486055850,0.21281595033360645,-0.0028943303041160107,56.6766
1684378350539635864,267,1684378350539201736,0.21281595033360645,-0.0028943303041160107,56.6766
1684378350587659768,268,1684378350587307691,0.21281595033360645,-0.0028943303041160107,56.6766
1684378350637624344,269,1684378350637233972,0.21281595033360645,-0.0028943303041160107,56.6766
1684378350685077816,270,1684378350684790372,0.21281595033360645,-0.0028943303041160107,56.6766
1684378350738192408,271,1684378350737494707,0.21281595033360645,-0.0028943303041160107,56.6766
1684378350787561848,272,1684378350787246942,0.21281595033360645,-0.0028943303041160107,56.6766
1684378350837913560,273,1684378350837389707,0.21281595033360645,-0.0028943303041160107,56.6766
1684378350887644760,274,1684378350887337446,0.21281595033360645,-0.0028943303041160107,56.6766
1684378350935085688,275,1684378350934736728,0.21281595033360645,-0.0028943303041160107,56.6766
1684378350987870488,276,1684378350987426519,0.21281595033360645,-0.0028943303041160107,56.6766
1684378351037879320,277,1684378351037358760,0.21281595033360645,-0.0028943303041160107,56.6766
1684378351087959416,278,1684378351087466478,0.21281595033360645,-0.0028943303041160107,56.6766
1684378351134845912,279,1684378351134523868,0.21281595033360645,-0.0028943303041160107,56.6766
1684378351184701720,280,1684378351184373617,0.21281595033360645,-0.0028943303041160107,56.6766
1684378351235059224,281,1684378351234664201,0.21281595033360645,-0.0028943303041160107,56.6766
1684378351287600824,282,1684378351287261724,0.21281595033360645,-0.0028943303041160107,56.6766
1684378351337749336,283,1684378351337366342,0.21281595033360645,-0.0028943303041160107,56.6766
1684378351404249400,284,1684378351403886079,0.2749750719522126,-0.14259783830493689,56.7367
1684378351438822200,285,1684378351438449621,0.2749750719522126,-0.14259783830493689,56.7367
1684378351485985112,286,1684378351485675334,0.2749750719522126,-0.14259783830493689,56.7367
1684378351538558040,287,1684378351538180351,0.2749750719522126,-0.14259783830493689,56.7367
1684378351587625880,288,1684378351587160348,0.2749750719522126,-0.14259783830493689,56.7367
1684378351637845016,289,1684378351637404680,0.2749750719522126,-0.14259783830493689,56.7367
1684378351687607992,290,1684378351687128543,0.2749750719522126,-0.14259783830493689,56.7367
1684378351739649112,291,1684378351737740516,0.2749750719522126,-0.14259783830493689,56.7367
1684378351787374072,292,1684378351787043809,0.2749750719522126,-0.14259783830493689,56.7367
1684378351837607256,293,1684378351837311744,0.2749750719522126,-0.14259783830493689,56.7367
1684378351887769272,294,1684378351887304544,0.2749750719522126,-0.14259783830493689,56.7367
1684378351938356280,295,1684378351937915563,0.2749750719522126,-0.14259783830493689,56.7367
1684378351987358008,296,1684378351986999273,0.2749750719522126,-0.14259783830493689,56.7367
1684378352037366392,297,1684378352036970853,0.2749750719522126,-0.14259783830493689,56.7367
1684378352084521752,298,1684378352084144115,0.2749750719522126,-0.14259783830493689,56.7367
1684378352137420120,299,1684378352137001991,0.2749750719522126,-0.14259783830493689,56.7367
1684378352187620120,300,1684378352186998128,0.2749750719522126,-0.14259783830493689,56.7367
1684378352234769784,301,1684378352234184265,0.2749750719522126,-0.14259783830493689,56.7367
1684378352287321144,302,1684378352287015438,0.2749750719522126,-0.14259783830493689,56.7367
1684378352334677592,303,1684378352334313869,0.2749750719522126,-0.14259783830493689,56.7367
1684378352404339000,304,1684378352403999328,0.31904700835002586,-0.2597956554964185,56.7476
1684378352439054680,305,1684378352438743591,0.31904700835002586,-0.2597956554964185,56.7476
1684378352489064344,306,1684378352488683462,0.31904700835002586,-0.2597956554964185,56.7476
1684378352538824856,307,1684378352538471698,0.31904700835002586,-0.2597956554964185,56.7476
1684378352587699160,308,1684378352587240219,0.31904700835002586,-0.2597956554964185,56.7476
1684378352637654296,309,1684378352637220621,0.31904700835002586,-0.2597956554964185,56.7476
1684378352687478264,310,1684378352687056541,0.31904700835002586,-0.2597956554964185,56.7476
1684378352737579704,311,1684378352737183809,0.31904700835002586,-0.2597956554964185,56.7476
1684378352786895800,312,1684378352786559820,0.31904700835002586,-0.2597956554964185,56.7476
1684378352838634648,313,1684378352837320804,0.31904700835002586,-0.2597956554964185,56.7476
1684378352887688312,314,1684378352887331485,0.31904700835002586,-0.2597956554964185,56.7476
1684378352937619288,315,1684378352937257766,0.31904700835002586,-0.2597956554964185,56.7476
1684378352988437560,316,1684378352987939834,0.31904700835002586,-0.2597956554964185,56.7476
1684378353037144984,317,1684378353035504579,0.31904700835002586,-0.2597956554964185,56.7476
1684378353087486264,318,1684378353087130308,0.31904700835002586,-0.2597956554964185,56.7476
1684378353137442168,319,1684378353137017011,0.31904700835002586,-0.2597956554964185,56.7476
1684378353184134648,320,1684378353183740854,0.31904700835002586,-0.2597956554964185,56.7476
1684378353236984664,321,1684378353236661195,0.31904700835002586,-0.2597956554964185,56.7476
1684378353287402776,322,1684378353286983966,0.31904700835002586,-0.2597956554964185,56.7476
1684378353337420440,323,1684378353337095260,0.31904700835002586,-0.2597956554964185,56.7476
1684378353404624760,324,1684378353404255390,0.329445127164945,-0.36306083807721734,56.7057
1684378353439011544,325,1684378353438597679,0.329445127164945,-0.36306083807721734,56.7057
1684378353486439352,326,1684378353486096382,0.329445127164945,-0.36306083807721734,56.7057
1684378353539586392,327,1684378353539235830,0.329445127164945,-0.36306083807721734,56.7057
1684378353588307128,328,1684378353587930917,0.329445127164945,-0.36306083807721734,56.7057
1684378353638015032,329,1684378353637434959,0.329445127164945,-0.36306083807721734,56.7057
1684378353687862168,330,1684378353687492370,0.329445127164945,-0.36306083807721734,56.7057
1684378353738215384,331,1684378353737715721,0.329445127164945,-0.36306083807721734,56.7057
1684378353784765176,332,1684378353784470796,0.329445127164945,-0.36306083807721734,56.7057
1684378353837750072,333,1684378353837356090,0.329445127164945,-0.36306083807721734,56.7057
1684378353887701784,334,1684378353887364149,0.329445127164945,-0.36306083807721734,56.7057
1684378353938173720,335,1684378353937797546,0.329445127164945,-0.36306083807721734,56.7057
1684378353987660248,336,1684378353987241983,0.329445127164945,-0.36306083807721734,56.7057
1684378354037581592,337,1684378354037124395,0.329445127164945,-0.36306083807721734,56.7057
1684378354085237464,338,1684378354084519386,0.329445127164945,-0.36306083807721734,56.7057
1684378354134952984,339,1684378354134639501,0.329445127164945,-0.36306083807721734,56.7057
1684378354187675224,340,1684378354187291622,0.329445127164945,-0.36306083807721734,56.7057
1684378354234894328,341,1684378354234489679,0.329445127164945,-0.36306083807721734,56.7057
1684378354287526136,342,1684378354287248849,0.329445127164945,-0.36306083807721734,56.7057
1684378354337776056,343,1684378354337399482,0.329445127164945,-0.36306083807721734,56.7057
1684378354404510680,344,1684378354404179096,0.36198676482308656,-0.3825135566294193,56.7248
1684378354439085080,345,1684378354438731193,0.36198676482308656,-0.3825135566294193,56.7248
1684378354485809560,346,1684378354485500335,0.36198676482308656,-0.3825135566294193,56.7248
1684378354538578424,347,1684378354538280725,0.36198676482308656,-0.3825135566294193,56.7248
1684378354587587512,348,1684378354587290048,0.36198676482308656,-0.3825135566294193,56.7248
1684378354638156728,349,1684378354637768983,0.36198676482308656,-0.3825135566294193,56.7248
1684378354685749208,350,1684378354685232400,0.36198676482308656,-0.3825135566294193,56.7248
1684378354735101656,351,1684378354734671115,0.36198676482308656,-0.3825135566294193,56.7248
1684378354787824216,352,1684378354787475824,0.36198676482308656,-0.3825135566294193,56.7248
1684378354834941656,353,1684378354834582567,0.36198676482308656,-0.3825135566294193,56.7248
1684378354887768120,354,1684378354887399435,0.36198676482308656,-0.3825135566294193,56.7248
1684378354937681944,355,1684378354937286376,0.36198676482308656,-0.3825135566294193,56.7248
1684378354984723928,356,1684378354984260559,0.36198676482308656,-0.3825135566294193,56.7248
1684378355037329688,357,1684378355036944389,0.36198676482308656,-0.3825135566294193,56.7248
1684378355087637048,358,1684378355087100982,0.36198676482308656,-0.3825135566294193,56.7248
1684378355137575064,359,1684378355137110471,0.36198676482308656,-0.3825135566294193,56.7248
1684378355187278008,360,1684378355186848402,0.36198676482308656,-0.3825135566294193,56.7248
1684378355237190712,361,1684378355236901044,0.36198676482308656,-0.3825135566294193,56.7248
1684378355284612600,362,1684378355284205675,0.36198676482308656,-0.3825135566294193,56.7248
1684378355337311992,363,1684378355336975574,0.36198676482308656,-0.3825135566294193,56.7248
1684378355404243480,364,1684378355403828620,0.3834704899927601,-0.3884589960798621,56.7469
1684378355438998776,365,1684378355438625574,0.3834704899927601,-0.3884589960798621,56.7469
1684378355489081528,366,1684378355488753318,0.3834704899927601,-0.3884589960798621,56.7469
1684378355536904248,367,1684378355536480426,0.3834704899927601,-0.3884589960798621,56.7469
1684378355584269944,368,1684378355583874464,0.3834704899927601,-0.3884589960798621,56.7469
1684378355638192728,369,1684378355637700557,0.3834704899927601,-0.3884589960798621,56.7469
1684378355687666648,370,1684378355687267780,0.3834704899927601,-0.3884589960798621,56.7469
1684378355735439608,371,1684378355735079526,0.3834704899927601,-0.3884589960798621,56.7469
1684378355787922456,372,1684378355787273406,0.3834704899927601,-0.3884589960798621,56.7469
1684378355834739544,373,1684378355834400653,0.3834704899927601,-0.3884589960798621,56.7469
1684378355887569464,374,1684378355887243509,0.3834704899927601,-0.3884589960798621,56.7469
1684378355937768248,375,1684378355937199115,0.3834704899927601,-0.3884589960798621,56.7469
1684378355985226360,376,1684378355984451770,0.3834704899927601,-0.3884589960798621,56.7469
1684378356037509944,377,1684378356037065029,0.3834704899927601,-0.3884589960798621,56.7469
1684378356084749976,378,1684378356084458589,0.3834704899927601,-0.3884589960798621,56.7469
1684378356137431032,379,1684378356137078762,0.3834704899927601,-0.3884589960798621,56.7469
1684378356185453272,380,1684378356185092449,0.3834704899927601,-0.3884589960798621,56.7469
1684378356237327960,381,1684378356236956357,0.3834704899927601,-0.3884589960798621,56.7469
1684378356286958264,382,1684378356286554574,0.3834704899927601,-0.3884589960798621,56.7469
1684378356337395736,383,1684378356337012529,0.3834704899927601,-0.3884589960798621,56.7469
1684378356400464824,384,1684378356399998426,0.38731858448591083,-0.4572444469667971,56.7629
1684378356435986680,385,1684378356435581922,0.38731858448591083,-0.4572444469667971,56.7629
1684378356488885304,386,1684378356488564014,0.38731858448591083,-0.4572444469667971,56.7629
1684378356536017528,387,1684378356535618543,0.38731858448591083,-0.4572444469667971,56.7629
1684378356587696536,388,1684378356587211608,0.38731858448591083,-0.4572444469667971,56.7629
1684378356634729752,389,1684378356634219408,0.38731858448591083,-0.4572444469667971,56.7629
1684378356687771864,390,1684378356687458276,0.38731858448591083,-0.4572444469667971,56.7629
1684378356737316952,391,1684378356736910820,0.38731858448591083,-0.4572444469667971,56.7629
1684378356784748248,392,1684378356784332990,0.38731858448591083,-0.4572444469667971,56.7629
1684378356838090712,393,1684378356837733030,0.38731858448591083,-0.4572444469667971,56.7629
1684378356888044728,394,1684378356887664318,0.38731858448591083,-0.4572444469667971,56.7629
1684378356937580792,395,1684378356937216997,0.38731858448591083,-0.4572444469667971,56.7629
1684378356987387320,396,1684378356986967086,0.38731858448591083,-0.4572444469667971,56.7629
1684378357034054168,397,1684378357033706188,0.38731858448591083,-0.4572444469667971,56.7629
1684378357087509976,398,1684378357087120056,0.38731858448591083,-0.4572444469667971,56.7629
1684378357134556952,399,1684378357134178638,0.38731858448591083,-0.4572444469667971,56.7629
1684378357187483736,400,1684378357187016010,0.38731858448591083,-0.4572444469667971,56.7629
1684378357234391960,401,1684378357234076499,0.38731858448591083,-0.4572444469667971,56.7629
1684378357284816184,402,1684378357284196376,0.38731858448591083,-0.4572444469667971,56.7629
1684378357337520184,403,1684378357337093591,0.38731858448591083,-0.4572444469667971,56.7629
1684378357402287416,404,1684378357401178359,0.3818868885282427,-0.47265814524143934,56.734
1684378357437409624,405,1684378357436611652,0.3818868885282427,-0.47265814524143934,56.734
1684378357489057304,406,1684378357488707304,0.3818868885282427,-0.47265814524143934,56.734
1684378357538682360,407,1684378357537971973,0.3818868885282427,-0.47265814524143934,56.734
1684378357587203032,408,1684378357586815118,0.3818868885282427,-0.47265814524143934,56.734
1684378357636961400,409,1684378357636569023,0.3818868885282427,-0.47265814524143934,56.734
1684378357684480568,410,1684378357684073448,0.3818868885282427,-0.47265814524143934,56.734
1684378357734103096,411,1684378357733795642,0.3818868885282427,-0.47265814524143934,56.734
1684378357786977752,412,1684378357786665678,0.3818868885282427,-0.47265814524143934,56.734
1684378357834824248,413,1684378357834344148,0.3818868885282427,-0.47265814524143934,56.734
1684378357885044312,414,1684378357884370088,0.3818868885282427,-0.47265814524143934,56.734
1684378357934533560,415,1684378357934247255,0.3818868885282427,-0.47265814524143934,56.734
1684378357986926072,416,1684378357986509323,0.3818868885282427,-0.47265814524143934,56.734
1684378358037521048,417,1684378358037068605,0.3818868885282427,-0.47265814524143934,56.734
1684378358084745944,418,1684378358084355354,0.3818868885282427,-0.47265814524143934,56.734
1684378358138083704,419,1684378358137113571,0.3818868885282427,-0.47265814524143934,56.734
1684378358187307672,420,1684378358186939477,0.3818868885282427,-0.47265814524143934,56.734
1684378358237853400,421,1684378358237352371,0.3818868885282427,-0.47265814524143934,56.734
1684378358287979960,422,1684378358287615776,0.3818868885282427,-0.47265814524143934,56.734
1684378358338594200,423,1684378358337929010,0.3818868885282427,-0.47265814524143934,56.734
1684378358404556888,424,1684378358404213428,0.42529204761376604,-0.6253082356415689,56.7846
1684378358439008760,425,1684378358438555240,0.42529204761376604,-0.6253082356415689,56.7846
1684378358489044440,426,1684378358488654851,0.42529204761376604,-0.6253082356415689,56.7846
1684378358539063928,427,1684378358538754463,0.42529204761376604,-0.6253082356415689,56.7846
1684378358588012632,428,1684378358587646722,0.42529204761376604,-0.6253082356415689,56.7846
1684378358634670616,429,1684378358634310960,0.42529204761376604,-0.6253082356415689,56.7846
1684378358688416184,430,1684378358688077926,0.42529204761376604,-0.6253082356415689,56.7846
1684378358737514584,431,1684378358737113714,0.42529204761376604,-0.6253082356415689,56.7846
1684378358784603160,432,1684378358784287452,0.42529204761376604,-0.6253082356415689,56.7846
1684378358834676664,433,1684378358834376335,0.42529204761376604,-0.6253082356415689,56.7846
1684378358887658296,434,1684378358887319087,0.42529204761376604,-0.6253082356415689,56.7846
1684378358934741016,435,1684378358934380054,0.42529204761376604,-0.6253082356415689,56.7846
1684378358987799032,436,1684378358987501621,0.42529204761376604,-0.6253082356415689,56.7846
1684378359039129784,437,1684378359037973165,0.42529204761376604,-0.6253082356415689,56.7846
1684378359087948568,438,1684378359087591648,0.42529204761376604,-0.6253082356415689,56.7846
1684378359139040600,439,1684378359138601064,0.42529204761376604,-0.6253082356415689,56.7846
1684378359188752952,440,1684378359188316822,0.42529204761376604,-0.6253082356415689,56.7846
1684378359239548536,441,1684378359238994836,0.42529204761376604,-0.6253082356415689,56.7846
1684378359286464280,442,1684378359285881996,0.42529204761376604,-0.6253082356415689,56.7846
1684378359335059832,443,1684378359334643602,0.42529204761376604,-0.6253082356415689,56.7846
1684378359405803992,444,1684378359405326366,0.4533884454285726,-0.8264345205388963,57.0181
1684378359439445976,445,1684378359439001798,0.4533884454285726,-0.8264345205388963,57.0181
1684378359489362424,446,1684378359488916873,0.4533884454285726,-0.8264345205388963,57.0181
1684378359539615512,447,1684378359539197683,0.4533884454285726,-0.8264345205388963,57.0181
1684378359588934168,448,1684378359587617874,0.4533884454285726,-0.8264345205388963,57.0181
1684378359638773144,449,1684378359638335704,0.4533884454285726,-0.8264345205388963,57.0181
1684378359685478488,450,1684378359685003042,0.4533884454285726,-0.8264345205388963,57.0181
1684378359735077336,451,1684378359734696149,0.4533884454285726,-0.8264345205388963,57.0181
1684378359787887384,452,1684378359787499427,0.4533884454285726,-0.8264345205388963,57.0181
1684378359835099640,453,1684378359834700822,0.4533884454285726,-0.8264345205388963,57.0181
1684378359887717080,454,1684378359887413740,0.4533884454285726,-0.8264345205388963,57.0181
1684378359938799864,455,1684378359938218832,0.4533884454285726,-0.8264345205388963,57.0181
1684378359985574808,456,1684378359985106945,0.4533884454285726,-0.8264345205388963,57.0181
1684378360038394808,457,1684378360038000345,0.4533884454285726,-0.8264345205388963,57.0181
1684378360087901912,458,1684378360087335109,0.4533884454285726,-0.8264345205388963,57.0181
1684378360135200536,459,1684378360134874105,0.4533884454285726,-0.8264345205388963,57.0181
1684378360187780536,460,1684378360187447786,0.4533884454285726,-0.8264345205388963,57.0181
1684378360238726360,461,1684378360237524986,0.4533884454285726,-0.8264345205388963,57.0181
1684378360288119160,462,1684378360287356853,0.4533884454285726,-0.8264345205388963,57.0181
1684378360334813656,463,1684378360334532260,0.4533884454285726,-0.8264345205388963,57.0181
1684378360405666776,464,1684378360405115365,0.45646557572763413,-0.9362116632983088,57.206
1684378360436003224,465,1684378360435669183,0.45646557572763413,-0.9362116632983088,57.206
1684378360489212632,466,1684378360488822460,0.45646557572763413,-0.9362116632983088,57.206
1684378360539222616,467,1684378360538753747,0.45646557572763413,-0.9362116632983088,57.206
1684378360588010520,468,1684378360587470531,0.45646557572763413,-0.9362116632983088,57.206
1684378360637823512,469,1684378360637411117,0.45646557572763413,-0.9362116632983088,57.206
1684378360688042360,470,1684378360687574863,0.45646557572763413,-0.9362116632983088,57.206
1684378360737704120,471,1684378360737325429,0.45646557572763413,-0.9362116632983088,57.206
1684378360788404920,472,1684378360788076639,0.45646557572763413,-0.9362116632983088,57.206
1684378360837657240,473,1684378360837351322,0.45646557572763413,-0.9362116632983088,57.206
1684378360887967384,474,1684378360887618064,0.45646557572763413,-0.9362116632983088,57.206
1684378360938480120,475,1684378360937977313,0.45646557572763413,-0.9362116632983088,57.206
1684378360988004440,476,1684378360987561225,0.45646557572763413,-0.9362116632983088,57.206
1684378361037483640,477,1684378361037190198,0.45646557572763413,-0.9362116632983088,57.206
1684378361087600248,478,1684378361087261915,0.45646557572763413,-0.9362116632983088,57.206
1684378361137495192,479,1684378361137166261,0.45646557572763413,-0.9362116632983088,57.206
1684378361187680120,480,1684378361187045097,0.45646557572763413,-0.9362116632983088,57.206
1684378361237771832,481,1684378361237139701,0.45646557572763413,-0.9362116632983088,57.206
1684378361287682296,482,1684378361287112712,0.45646557572763413,-0.9362116632983088,57.206
1684378361337550040,483,1684378361337168216,0.45646557572763413,-0.9362116632983088,57.206
1684378361405952152,484,1684378361404522657,0.41297720110742375,-0.9520178739912808,57.4896
1684378361439541880,485,1684378361439109563,0.41297720110742375,-0.9520178739912808,57.4896
1684378361486279768,486,1684378361485766649,0.41297720110742375,-0.9520178739912808,57.4896
1684378361536164376,487,1684378361535794734,0.41297720110742375,-0.9520178739912808,57.4896
1684378361587931576,488,1684378361587248325,0.41297720110742375,-0.9520178739912808,57.4896
1684378361637217432,489,1684378361636891126,0.41297720110742375,-0.9520178739912808,57.4896
1684378361685554424,490,1684378361685111045,0.41297720110742375,-0.9520178739912808,57.4896
1684378361737626456,491,1684378361737282514,0.41297720110742375,-0.9520178739912808,57.4896
1684378361787554040,492,1684378361787125825,0.41297720110742375,-0.9520178739912808,57.4896
1684378361837273336,493,1684378361836863279,0.41297720110742375,-0.9520178739912808,57.4896
1684378361887046360,494,1684378361886744737,0.41297720110742375,-0.9520178739912808,57.4896
1684378361937955896,495,1684378361937562465,0.41297720110742375,-0.9520178739912808,57.4896
1684378361989393688,496,1684378361988330602,0.41297720110742375,-0.9520178739912808,57.4896
1684378362037845528,497,1684378362037480354,0.41297720110742375,-0.9520178739912808,57.4896
1684378362087795384,498,1684378362087474346,0.41297720110742375,-0.9520178739912808,57.4896
1684378362136127256,499,1684378362135537862,0.41297720110742375,-0.9520178739912808,57.4896
1684378362186895896,500,1684378362186558008,0.41297720110742375,-0.9520178739912808,57.4896
1684378362236918168,501,1684378362236663103,0.41297720110742375,-0.9520178739912808,57.4896
1684378362287673400,502,1684378362287280082,0.41297720110742375,-0.9520178739912808,57.4896
1684378362335551288,503,1684378362335123300,0.41297720110742375,-0.9520178739912808,57.4896
1684378362408058136,504,1684378362405994653,0.4321132206823677,-0.9734350140206516,57.6393
1684378362439356728,505,1684378362438950300,0.4321132206823677,-0.9734350140206516,57.6393
1684378362487140248,506,1684378362486722230,0.4321132206823677,-0.9734350140206516,57.6393
1684378362540613464,507,1684378362539973258,0.4321132206823677,-0.9734350140206516,57.6393
1684378362588640792,508,1684378362588215589,0.4321132206823677,-0.9734350140206516,57.6393
1684378362634566296,509,1684378362634273290,0.4321132206823677,-0.9734350140206516,57.6393
1684378362685453304,510,1684378362685065031,0.4321132206823677,-0.9734350140206516,57.6393
1684378362737442200,511,1684378362737084865,0.4321132206823677,-0.9734350140206516,57.6393
1684378362787564152,512,1684378362787197113,0.4321132206823677,-0.9734350140206516,57.6393
1684378362837439128,513,1684378362837098836,0.4321132206823677,-0.9734350140206516,57.6393
1684378362888855192,514,1684378362888450145,0.4321132206823677,-0.9734350140206516,57.6393
1684378362937518712,515,1684378362937206029,0.4321132206823677,-0.9734350140206516,57.6393
1684378362987718584,516,1684378362987294912,0.4321132206823677,-0.9734350140206516,57.6393
1684378363037498936,517,1684378363037108421,0.4321132206823677,-0.9734350140206516,57.6393
1684378363084584152,518,1684378363084269285,0.4321132206823677,-0.9734350140206516,57.6393
1684378363134698840,519,1684378363134214639,0.4321132206823677,-0.9734350140206516,57.6393
1684378363187387832,520,1684378363187088489,0.4321132206823677,-0.9734350140206516,57.6393
1684378363237349304,521,1684378363236962795,0.4321132206823677,-0.9734350140206516,57.6393
1684378363287371768,522,1684378363286919116,0.4321132206823677,-0.9734350140206516,57.6393
1684378363337294584,523,1684378363336993455,0.4321132206823677,-0.9734350140206516,57.6393
1684378363405505464,524,1684378363405130863,0.391632474726066,-1.0480363895185292,57.8106
1684378363440742808,525,1684378363440171241,0.391632474726066,-1.0480363895185292,57.8106
1684378363491053656,526,1684378363490463972,0.391632474726066,-1.0480363895185292,57.8106
1684378363536385976,527,1684378363536044836,0.391632474726066,-1.0480363895185292,57.8106
1684378363588797720,528,1684378363588230609,0.391632474726066,-1.0480363895185292,57.8106
1684378363638846072,529,1684378363638434410,0.391632474726066,-1.0480363895185292,57.8106
1684378363688518616,530,1684378363688102483,0.391632474726066,-1.0480363895185292,57.8106
1684378363736513624,531,1684378363736000299,0.391632474726066,-1.0480363895185292,57.8106
1684378363787595256,532,1684378363787263154,0.391632474726066,-1.0480363895185292,57.8106
1684378363837757304,533,1684378363837381362,0.391632474726066,-1.0480363895185292,57.8106
1684378363888009144,534,1684378363887679815,0.391632474726066,-1.0480363895185292,57.8106
1684378363938030328,535,1684378363937756061,0.391632474726066,-1.0480363895185292,57.8106
1684378363987613560,536,1684378363987186908,0.391632474726066,-1.0480363895185292,57.8106
1684378364037811992,537,1684378364037477493,0.391632474726066,-1.0480363895185292,57.8106
1684378364087851864,538,1684378364087413787,0.391632474726066,-1.0480363895185292,57.8106
1684378364137682392,539,1684378364137359142,0.391632474726066,-1.0480363895185292,57.8106
1684378364187603960,540,1684378364187277793,0.391632474726066,-1.0480363895185292,57.8106
1684378364237478296,541,1684378364237203121,0.391632474726066,-1.0480363895185292,57.8106
1684378364287623832,542,1684378364287296056,0.391632474726066,-1.0480363895185292,57.8106
1684378364337826232,543,1684378364337356805,0.391632474726066,-1.0480363895185292,57.8106
1684378364407869688,544,1684378364406638145,0.37306617299327627,-1.2150367884896696,57.9337
1684378364441176792,545,1684378364436635017,0.37306617299327627,-1.2150367884896696,57.9337
1684378364489011096,546,1684378364488732337,0.37306617299327627,-1.2150367884896696,57.9337
1684378364539124184,547,1684378364538785696,0.37306617299327627,-1.2150367884896696,57.9337
1684378364587806264,548,1684378364587399482,0.37306617299327627,-1.2150367884896696,57.9337
1684378364635288280,549,1684378364634321212,0.37306617299327627,-1.2150367884896696,57.9337
1684378364687722040,550,1684378364687396049,0.37306617299327627,-1.2150367884896696,57.9337
1684378364737640472,551,1684378364737347602,0.37306617299327627,-1.2150367884896696,57.9337
1684378364787427320,552,1684378364787119388,0.37306617299327627,-1.2150367884896696,57.9337
1684378364837544856,553,1684378364837259769,0.37306617299327627,-1.2150367884896696,57.9337
1684378364889578296,554,1684378364887941837,0.37306617299327627,-1.2150367884896696,57.9337
1684378364937790744,555,1684378364937435865,0.37306617299327627,-1.2150367884896696,57.9337
1684378364984752408,556,1684378364984427928,0.37306617299327627,-1.2150367884896696,57.9337
1684378365034820504,557,1684378365034484148,0.37306617299327627,-1.2150367884896696,57.9337
1684378365087811448,558,1684378365087454795,0.37306617299327627,-1.2150367884896696,57.9337
1684378365137871512,559,1684378365137557744,0.37306617299327627,-1.2150367884896696,57.9337
1684378365187474232,560,1684378365187137126,0.37306617299327627,-1.2150367884896696,57.9337
1684378365234538776,561,1684378365234249830,0.37306617299327627,-1.2150367884896696,57.9337
1684378365284461400,562,1684378365284162282,0.37306617299327627,-1.2150367884896696,57.9337
1684378365337303000,563,1684378365337044477,0.37306617299327627,-1.2150367884896696,57.9337
1684378365404518168,564,1684378365404045343,0.18198397610103711,-1.204793298151344,57.9513
1684378365435942840,565,1684378365435605049,0.18198397610103711,-1.204793298151344,57.9513
1684378365489782904,566,1684378365489378929,0.18198397610103711,-1.204793298151344,57.9513
1684378365538640248,567,1684378365538323879,0.18198397610103711,-1.204793298151344,57.9513
1684378365587337720,568,1684378365587025642,0.18198397610103711,-1.204793298151344,57.9513
1684378365634466264,569,1684378365634124994,0.18198397610103711,-1.204793298151344,57.9513
1684378365687729016,570,1684378365687366724,0.18198397610103711,-1.204793298151344,57.9513
1684378365737598424,571,1684378365737230300,0.18198397610103711,-1.204793298151344,57.9513
1684378365784901240,572,1684378365784518718,0.18198397610103711,-1.204793298151344,57.9513
1684378365837559704,573,1684378365837188243,0.18198397610103711,-1.204793298151344,57.9513
1684378365887397368,574,1684378365887090682,0.18198397610103711,-1.204793298151344,57.9513
1684378365937394392,575,1684378365937089204,0.18198397610103711,-1.204793298151344,57.9513
1684378365987738136,576,1684378365987352371,0.18198397610103711,-1.204793298151344,57.9513
1684378366037951864,577,1684378366037654161,0.18198397610103711,-1.204793298151344,57.9513
1684378366087405784,578,1684378366087149620,0.18198397610103711,-1.204793298151344,57.9513
1684378366134944792,579,1684378366134665489,0.18198397610103711,-1.204793298151344,57.9513
1684378366184926008,580,1684378366184636592,0.18198397610103711,-1.204793298151344,57.9513
1684378366238045816,581,1684378366237658739,0.18198397610103711,-1.204793298151344,57.9513
1684378366288945720,582,1684378366287508964,0.18198397610103711,-1.204793298151344,57.9513
1684378366335047896,583,1684378366334654808,0.18198397610103711,-1.204793298151344,57.9513
1684378366404838904,584,1684378366404489994,-0.07993273407919332,-1.1333706891164184,58.0684
1684378366439161656,585,1684378366438926935,-0.07993273407919332,-1.1333706891164184,58.0684
1684378366490760408,586,1684378366490328550,-0.07993273407919332,-1.1333706891164184,58.0684
1684378366536121240,587,1684378366535846233,-0.07993273407919332,-1.1333706891164184,58.0684
1684378366589115512,588,1684378366588653326,-0.07993273407919332,-1.1333706891164184,58.0684
1684378366637657176,589,1684378366637348651,-0.07993273407919332,-1.1333706891164184,58.0684
1684378366685070552,590,1684378366684728145,-0.07993273407919332,-1.1333706891164184,58.0684
1684378366737684696,591,1684378366737382411,-0.07993273407919332,-1.1333706891164184,58.0684
1684378366787479160,592,1684378366787140369,-0.07993273407919332,-1.1333706891164184,58.0684
1684378366837675736,593,1684378366837397336,-0.07993273407919332,-1.1333706891164184,58.0684
1684378366885397080,594,1684378366884311199,-0.07993273407919332,-1.1333706891164184,58.0684
1684378366937742808,595,1684378366937425374,-0.07993273407919332,-1.1333706891164184,58.0684
1684378366987715992,596,1684378366987427949,-0.07993273407919332,-1.1333706891164184,58.0684
1684378367034680312,597,1684378367034343242,-0.07993273407919332,-1.1333706891164184,58.0684
1684378367087611096,598,1684378367087243556,-0.07993273407919332,-1.1333706891164184,58.0684
1684378367137643576,599,1684378367137321710,-0.07993273407919332,-1.1333706891164184,58.0684
1684378367187575640,600,1684378367187102556,-0.07993273407919332,-1.1333706891164184,58.0684
1684378367237394648,601,1684378367237027406,-0.07993273407919332,-1.1333706891164184,58.0684
1684378367287599960,602,1684378367287142515,-0.07993273407919332,-1.1333706891164184,58.0684
1684378367337501880,603,1684378367337213039,-0.07993273407919332,-1.1333706891164184,58.0684
1684378367404690872,604,1684378367404229640,-0.22081681963754818,-1.0786320180632174,58.1458
1684378367439171160,605,1684378367438817262,-0.22081681963754818,-1.0786320180632174,58.1458
1684378367485805016,606,1684378367485527038,-0.22081681963754818,-1.0786320180632174,58.1458
1684378367535738744,607,1684378367535419225,-0.22081681963754818,-1.0786320180632174,58.1458
1684378367587594680,608,1684378367587327480,-0.22081681963754818,-1.0786320180632174,58.1458
1684378367635191800,609,1684378367634789705,-0.22081681963754818,-1.0786320180632174,58.1458
1684378367686280536,610,1684378367685924053,-0.22081681963754818,-1.0786320180632174,58.1458
1684378367738214424,611,1684378367737792015,-0.22081681963754818,-1.0786320180632174,58.1458
1684378367787885976,612,1684378367787510871,-0.22081681963754818,-1.0786320180632174,58.1458
1684378367837762328,613,1684378367837302923,-0.22081681963754818,-1.0786320180632174,58.1458
1684378367887967992,614,1684378367887659311,-0.22081681963754818,-1.0786320180632174,58.1458
1684378367937653112,615,1684378367937364816,-0.22081681963754818,-1.0786320180632174,58.1458
1684378367984833912,616,1684378367984457254,-0.22081681963754818,-1.0786320180632174,58.1458
1684378368037597944,617,1684378368037265062,-0.22081681963754818,-1.0786320180632174,58.1458
1684378368085033848,618,1684378368084727764,-0.22081681963754818,-1.0786320180632174,58.1458
1684378368137853688,619,1684378368137494802,-0.22081681963754818,-1.0786320180632174,58.1458
1684378368187516152,620,1684378368187246561,-0.22081681963754818,-1.0786320180632174,58.1458
1684378368237369080,621,1684378368237016677,-0.22081681963754818,-1.0786320180632174,58.1458
1684378368287288504,622,1684378368286952733,-0.22081681963754818,-1.0786320180632174,58.1458
1684378368334485336,623,1684378368334120035,-0.22081681963754818,-1.0786320180632174,58.1458
1684378368401646008,624,1684378368401210308,-0.4733355801436119,-1.16365299327299,58.1663
1684378368436085144,625,1684378368435786962,-0.4733355801436119,-1.16365299327299,58.1663
1684378368486045432,626,1684378368485690832,-0.4733355801436119,-1.16365299327299,58.1663
1684378368539507512,627,1684378368538738489,-0.4733355801436119,-1.16365299327299,58.1663
1684378368587696376,628,1684378368587276220,-0.4733355801436119,-1.16365299327299,58.1663
1684378368637374392,629,1684378368637035369,-0.4733355801436119,-1.16365299327299,58.1663
1684378368688345560,630,1684378368688085794,-0.4733355801436119,-1.16365299327299,58.1663
1684378368737566680,631,1684378368737236976,-0.4733355801436119,-1.16365299327299,58.1663
1684378368784540952,632,1684378368784271717,-0.4733355801436119,-1.16365299327299,58.1663
1684378368834819832,633,1684378368834508895,-0.4733355801436119,-1.16365299327299,58.1663
1684378368887501784,634,1684378368887193918,-0.4733355801436119,-1.16365299327299,58.1663
1684378368934864408,635,1684378368934473752,-0.4733355801436119,-1.16365299327299,58.1663
1684378368984897592,636,1684378368984565019,-0.4733355801436119,-1.16365299327299,58.1663
1684378369037554808,637,1684378369037242650,-0.4733355801436119,-1.16365299327299,58.1663
1684378369087426456,638,1684378369087111711,-0.4733355801436119,-1.16365299327299,58.1663
1684378369134724728,639,1684378369134374856,-0.4733355801436119,-1.16365299327299,58.1663
1684378369188427256,640,1684378369188021421,-0.4733355801436119,-1.16365299327299,58.1663
1684378369238171928,641,1684378369237850666,-0.4733355801436119,-1.16365299327299,58.1663
1684378369288398328,642,1684378369288005352,-0.4733355801436119,-1.16365299327299,58.1663
1684378369338292344,643,1684378369337887763,-0.4733355801436119,-1.16365299327299,58.1663
1684378369405023000,644,1684378369404644012,-0.7947510234080255,-1.0844616740942001,58.0482
1684378369438816088,645,1684378369438448667,-0.7947510234080255,-1.0844616740942001,58.0482
1684378369489024472,646,1684378369488603115,-0.7947510234080255,-1.0844616740942001,58.0482
1684378369538735928,647,1684378369538363456,-0.7947510234080255,-1.0844616740942001,58.0482
1684378369587946552,648,1684378369587239980,-0.7947510234080255,-1.0844616740942001,58.0482
1684378369638079416,649,1684378369637445211,-0.7947510234080255,-1.0844616740942001,58.0482
1684378369684921048,650,1684378369684552907,-0.7947510234080255,-1.0844616740942001,58.0482
1684378369734735256,651,1684378369734275817,-0.7947510234080255,-1.0844616740942001,58.0482
1684378369787436152,652,1684378369787147998,-0.7947510234080255,-1.0844616740942001,58.0482
1684378369837563896,653,1684378369837250709,-0.7947510234080255,-1.0844616740942001,58.0482
1684378369887694424,654,1684378369887392759,-0.7947510234080255,-1.0844616740942001,58.0482
1684378369937975096,655,1684378369937490463,-0.7947510234080255,-1.0844616740942001,58.0482
1684378369987408408,656,1684378369987092733,-0.7947510234080255,-1.0844616740942001,58.0482
1684378370037368024,657,1684378370037045717,-0.7947510234080255,-1.0844616740942001,58.0482
1684378370087590040,658,1684378370087157964,-0.7947510234080255,-1.0844616740942001,58.0482
1684378370137417560,659,1684378370137083053,-0.7947510234080255,-1.0844616740942001,58.0482
1684378370187623480,660,1684378370187266588,-0.7947510234080255,-1.0844616740942001,58.0482
1684378370237327576,661,1684378370236988306,-0.7947510234080255,-1.0844616740942001,58.0482
1684378370287231704,662,1684378370286937952,-0.7947510234080255,-1.0844616740942001,58.0482
1684378370337444536,663,1684378370337076187,-0.7947510234080255,-1.0844616740942001,58.0482
1684378370404393176,664,1684378370404006719,-1.0927100918488577,-1.0156859918497503,58.172
1684378370435921176,665,1684378370435525178,-1.0927100918488577,-1.0156859918497503,58.172
1684378370485860088,666,1684378370485475778,-1.0927100918488577,-1.0156859918497503,58.172
1684378370539161848,667,1684378370538677930,-1.0927100918488577,-1.0156859918497503,58.172
1684378370587322520,668,1684378370587029218,-1.0927100918488577,-1.0156859918497503,58.172
1684378370637864856,669,1684378370637471199,-1.0927100918488577,-1.0156859918497503,58.172
1684378370688679576,670,1684378370688207387,-1.0927100918488577,-1.0156859918497503,58.172
1684378370741819960,671,1684378370737098217,-1.0927100918488577,-1.0156859918497503,58.172
1684378370784621496,672,1684378370784244298,-1.0927100918488577,-1.0156859918497503,58.172
1684378370834872504,673,1684378370834577560,-1.0927100918488577,-1.0156859918497503,58.172
1684378370884501560,674,1684378370884185075,-1.0927100918488577,-1.0156859918497503,58.172
1684378370938263192,675,1684378370937660217,-1.0927100918488577,-1.0156859918497503,58.172
1684378370987741656,676,1684378370987229108,-1.0927100918488577,-1.0156859918497503,58.172
1684378371034366648,677,1684378371034040212,-1.0927100918488577,-1.0156859918497503,58.172
1684378371086978072,678,1684378371086686372,-1.0927100918488577,-1.0156859918497503,58.172
1684378371137467128,679,1684378371136926651,-1.0927100918488577,-1.0156859918497503,58.172
1684378371187100952,680,1684378371186718225,-1.0927100918488577,-1.0156859918497503,58.172
1684378371238401240,681,1684378371237939596,-1.0927100918488577,-1.0156859918497503,58.172
1684378371287620856,682,1684378371287252187,-1.0927100918488577,-1.0156859918497503,58.172
1684378371337602680,683,1684378371337209701,-1.0927100918488577,-1.0156859918497503,58.172
1684378371404040824,684,1684378371403746843,-1.395913323329296,-0.9523530486039817,58.297
1684378371435680952,685,1684378371435351133,-1.395913323329296,-0.9523530486039817,58.297
1684378371488554936,686,1684378371488193750,-1.395913323329296,-0.9523530486039817,58.297
1684378371540159480,687,1684378371538686275,-1.395913323329296,-0.9523530486039817,58.297
1684378371587177112,688,1684378371586857795,-1.395913323329296,-0.9523530486039817,58.297
1684378371637433912,689,1684378371637006282,-1.395913323329296,-0.9523530486039817,58.297
1684378371687840088,690,1684378371687436580,-1.395913323329296,-0.9523530486039817,58.297
1684378371737663032,691,1684378371737152576,-1.395913323329296,-0.9523530486039817,58.297
1684378371787194808,692,1684378371786819934,-1.395913323329296,-0.9523530486039817,58.297
1684378371838625432,693,1684378371837124824,-1.395913323329296,-0.9523530486039817,58.297
1684378371884985112,694,1684378371884575128,-1.395913323329296,-0.9523530486039817,58.297
1684378371937353944,695,1684378371937007665,-1.395913323329296,-0.9523530486039817,58.297
1684378371987441560,696,1684378371987165212,-1.395913323329296,-0.9523530486039817,58.297
1684378372037561080,697,1684378372037137746,-1.395913323329296,-0.9523530486039817,58.297
1684378372087887128,698,1684378372087477445,-1.395913323329296,-0.9523530486039817,58.297
1684378372137770360,699,1684378372137366771,-1.395913323329296,-0.9523530486039817,58.297
1684378372188473976,700,1684378372188025951,-1.395913323329296,-0.9523530486039817,58.297
1684378372237769208,701,1684378372237145185,-1.395913323329296,-0.9523530486039817,58.297
1684378372284876536,702,1684378372284438371,-1.395913323329296,-0.9523530486039817,58.297
1684378372338966552,703,1684378372338505029,-1.395913323329296,-0.9523530486039817,58.297
1684378372402119128,704,1684378372401715517,-1.7655959040857852,-0.9243428502231836,58.31
1684378372438484632,705,1684378372438123464,-1.7655959040857852,-0.9243428502231836,58.31
1684378372488395928,706,1684378372488095283,-1.7655959040857852,-0.9243428502231836,58.31
1684378372536782744,707,1684378372536345005,-1.7655959040857852,-0.9243428502231836,58.31
1684378372584537208,708,1684378372584112644,-1.7655959040857852,-0.9243428502231836,58.31
1684378372637315576,709,1684378372636972904,-1.7655959040857852,-0.9243428502231836,58.31
1684378372688866200,710,1684378372688283205,-1.7655959040857852,-0.9243428502231836,58.31
1684378372737776984,711,1684378372737301826,-1.7655959040857852,-0.9243428502231836,58.31
1684378372784343000,712,1684378372783969879,-1.7655959040857852,-0.9243428502231836,58.31
1684378372837314168,713,1684378372836961746,-1.7655959040857852,-0.9243428502231836,58.31
1684378372886912888,714,1684378372886487483,-1.7655959040857852,-0.9243428502231836,58.31
1684378372938293112,715,1684378372937231540,-1.7655959040857852,-0.9243428502231836,58.31
1684378372986796440,716,1684378372986453771,-1.7655959040857852,-0.9243428502231836,58.31
1684378373036760664,717,1684378373036443948,-1.7655959040857852,-0.9243428502231836,58.31
1684378373086812056,718,1684378373086435794,-1.7655959040857852,-0.9243428502231836,58.31
1684378373137598296,719,1684378373137199163,-1.7655959040857852,-0.9243428502231836,58.31
1684378373186530168,720,1684378373186222553,-1.7655959040857852,-0.9243428502231836,58.31
1684378373236666872,721,1684378373236262798,-1.7655959040857852,-0.9243428502231836,58.31
1684378373286684760,722,1684378373286276578,-1.7655959040857852,-0.9243428502231836,58.31
1684378373336589336,723,1684378373336203575,-1.7655959040857852,-0.9243428502231836,58.31
1684378373404041848,724,1684378373403697013,-2.1443707306752913,-0.8329899339005351,58.2324
1684378373438385240,725,1684378373438050508,-2.1443707306752913,-0.8329899339005351,58.2324
1684378373488551384,726,1684378373488236188,-2.1443707306752913,-0.8329899339005351,58.2324
1684378373538442008,727,1684378373538139343,-2.1443707306752913,-0.8329899339005351,58.2324
1684378373585021112,728,1684378373584724187,-2.1443707306752913,-0.8329899339005351,58.2324
1684378373636481496,729,1684378373636184215,-2.1443707306752913,-0.8329899339005351,58.2324
1684378373687611032,730,1684378373687193155,-2.1443707306752913,-0.8329899339005351,58.2324
1684378373738213592,731,1684378373737812519,-2.1443707306752913,-0.8329899339005351,58.2324
1684378373787114072,732,1684378373786707401,-2.1443707306752913,-0.8329899339005351,58.2324
1684378373838306008,733,1684378373837666988,-2.1443707306752913,-0.8329899339005351,58.2324
1684378373887098392,734,1684378373886744737,-2.1443707306752913,-0.8329899339005351,58.2324
1684378373937506552,735,1684378373937164306,-2.1443707306752913,-0.8329899339005351,58.2324
1684378373984535512,736,1684378373984203815,-2.1443707306752913,-0.8329899339005351,58.2324
